id,start_date,lat,lon,l3,surface_total,surface_covered,price,title,property_type,operation_type
YUqEveDfHjOWGM93WEE5aA==,2019-05-31,-34.5991827,-58.4251773,Almagro,57.0,52.0,17000.0,Lindísimo piso de 3 ambientes con balcón en excelente ubicación!,Departamento,Alquiler
PoqlL4OEXe9k6fhvnRJoDA==,2019-06-08,-34.5919448,-58.3936088,Recoleta,31.0,31.0,14000.0,Departamento - Recoleta,Departamento,Alquiler
8L3aSBD2tLr2JGrlCA3Vwg==,2019-04-09,-34.6044878,-58.4523072,Villa Crespo,80.0,65.0,25000.0,PH EN ALQUILER,PH,Alquiler
3eGy2hvFP+RC7Cibl62K2w==,2019-06-15,-34.5893888858,-58.4017334302,Barrio Norte,40.0,40.0,19000.0,Local Comercial. Planta Baja: 40 m². Apto todo destino.,Local comercial,Alquiler
gDlIV5+M8E0xT6mJZ2g8KQ==,2019-03-08,-34.568016,-58.450757,Belgrano,30.0,30.0,14000.0,ALQUILER 2 AMBIENTES EN BELGRANO!!,Departamento,Alquiler
7/pHMXYQgXKDY1B/4zEIjw==,2019-01-27,-34.612113,-58.435233,Caballito,83.0,42.0,20000.0,"Depto 2 amb. Balcón, Terraza y Cochera Caballito",PH,Alquiler
bc4aY8mope8KrNFOWn2QwA==,2019-04-17,-34.622993,-58.441273,Caballito,35.0,35.0,12000.0,Alquiler Departamento en Caballito Capital Federal ALBERDI 920,Departamento,Alquiler
1EIg73XfzM0eM3pEMysJDQ==,2019-05-03,-34.617558,-58.461899,Caballito,50.0,46.0,16000.0,Alquiler Departamento en Caballito Capital Federal Andres Lamas 839,Departamento,Alquiler
h0MviKerFlwDvrc70JgQTg==,2019-01-18,-34.5805214352,-58.4115536624,Palermo,46.0,42.0,20000.0,CABELLO 3600 - APTO PROFESIONAL   AMENITIES - PISCINA   -  2AMB,Departamento,Alquiler
Xbr9mFWKyI9QQf+Qob5QlA==,2019-04-09,-34.5811207,-58.4098961,Barrio Norte,40.0,36.0,32000.0,A Estrenar Monoambiente 40 m2 Salguero y Cerviño Amenities Palermo Joy Equipado y Amueblado,Departamento,Alquiler
oGlU3IF5Vwsa9raz/fYcOA==,2019-03-14,-34.577953,-58.491825,Villa Urquiza,32.0,32.0,11800.0,Alquiler Departamento en Villa Urquiza Capital Federal Burela 2378,Departamento,Alquiler
8zB7A8dJFTG2q2Yq1OrJJA==,2019-02-05,-34.5872958,-58.4033104,Recoleta,34.0,30.0,11000.0,Departamento En Austria y Aguero- Recoleta,Departamento,Alquiler
baZBBExO/7MVt3mwZgeTDQ==,2018-12-29,-34.6226051,-58.4437882,Caballito,30.0,30.0,22000.0,LOCAL EN ALQUILER EMILIO MITRE Y RIVADAVIA,Local comercial,Alquiler
bygxsKjEq1DQvqGRikwtjA==,2019-01-05,-34.566901,-58.43773,Palermo,43.0,40.0,17000.0,Alquiler 2 Ambientes con cochera en Cañitas,Departamento,Alquiler
RPGdR/LsNIvB0LXsj98DTA==,2019-04-05,-34.575215126,-58.4231798602,Palermo,36.0,36.0,16500.0,2 AMBIENTES EN PALERMO - CERVIÑO Y SINCLAIR,Departamento,Alquiler
TN1fPS5Ms2oU8o2ZgbpMJA==,2019-04-24,-34.613794,-58.425989,Caballito,60.0,60.0,20000.0,ALQUILER 3 amb amplios sobre Rivadavia en Caballito $20.000 mas gastos sin muebles,Departamento,Alquiler
FuN7zG2vHevfUyyoqnHYmg==,2019-05-13,-34.5950932,-58.4371128,Palermo,105.0,105.0,55000.0,Local de 1 ambiente en Alquiler en Palermo,Local comercial,Alquiler
Gewl0QmM+nnGRIPJdl7aXg==,2019-02-26,-34.5535372,-58.4612566,Belgrano,64.0,55.0,22000.0,DEPARTAMENTO EN ALQUILER,Departamento,Alquiler
vSBrhHtjVbaR9cmIOlW9rg==,2019-03-14,-34.5944348,-58.3835014,Recoleta,72.0,72.0,24000.0,Excelente depto. Apto profesional en Arenales y Libertad,Oficina,Alquiler
wL6LMR+nHz64ytKWQGEZZA==,2019-05-15,-34.6207193,-58.4355264,Caballito,42.0,42.0,12000.0,2AMB | Avenida José María Moreno 200 - CABA,Departamento,Alquiler
FgwvjhdpK+DDIqAaphhpMg==,2019-01-15,-34.5427503,-58.4601452,Nuñez,53.0,50.0,13000.0,PH - Nuñez  de 2 ambientes muy grande luz ysol,PH,Alquiler
id3hNzpQaKEuz6tXADXxTQ==,2019-04-30,-34.596832,-58.398003,Recoleta,43.0,43.0,12500.0,Departamento en alquiler Recoleta,Departamento,Alquiler
iizXfycdY2eAMQK9LZNJSw==,2019-02-24,-34.597677,-58.402784,Barrio Norte,91.0,91.0,20000.0,Local + oficinas / deposito,Oficina,Alquiler
5Zb4OBYvKiHpc9Pa9GMbTA==,2019-02-05,-34.5964905,-58.3858368,Recoleta,60.0,60.0,13500.0,Talcahuano y Santa Fe inmejorable ubicación,Departamento,Alquiler
K5q2fIVq0zT5nA5cDfG1ag==,2019-04-18,-34.567712,-58.4350576,Belgrano,79.0,69.0,25000.0,Excelente depto de 2 dormitorios con cochera,Departamento,Alquiler
uftPDKeosNfDWWD7Tybxqw==,2019-04-13,-34.6284346,-58.4371796,Caballito,49.0,45.0,14500.0,"2 ambientes amplios al frente con balcón,",Departamento,Alquiler
aqWVnuaFU5bXFgZOabhQ4Q==,2019-05-06,-34.5825398436,-58.4324823302,Palermo,51.0,41.0,22000.0,Venta - Alquiler - 2 amb - Nicaragua 5400 - Torre - Duplex - P. Hollywood,Departamento,Alquiler
Mxq17y4rEFhojSZm1T/sGA==,2019-01-08,-34.5658295,-58.4971034,Villa Urquiza,40.0,40.0,15000.0,LOCAL EN ALQUILER,Local comercial,Alquiler
L06ZNZWvGzx4hZshnU8mVw==,2019-05-31,-34.5941863,-58.4095425,Barrio Norte,53.0,50.0,19000.0,MANSILLA 3043 ALQUILER 2 AMB C/FTE BALCÓN AMENITIES,Departamento,Alquiler
A2R6lBJrjej3JqWq+SHxyA==,2019-01-10,-34.5875461589,-58.4088162184,Palermo,130.0,111.0,45000.0,"Departamento 4 ambientes en alquiler, vigilancia 24hs, balcón terraza, cochera.",Departamento,Alquiler
bDOVehyAH6SdjVOSsewV7g==,2019-03-30,-34.612415,-58.440353,Caballito,65.0,65.0,23000.0,DEPARTAMENTO 3 AMB. c BALCÓN y COCHERA. CABALLITO,Departamento,Alquiler
cMbtUQsljrWIA7QZAGzxKA==,2019-06-06,-34.573129,-58.480031,Villa Urquiza,77.0,74.0,35000.0,ALQUILER - 3 AMB C/GARAGE - PILETA/PARRILLA/SUM,Departamento,Alquiler
/X5JvIdJCkKBwyNBVKMCpw==,2018-12-29,-34.6226051,-58.4437882,Caballito,30.0,30.0,22000.0,LOCAL EN ALQUILER EMILIO MITRE Y RIVADAVIA,Local comercial,Alquiler
C/nerGPZbjFt3t3u3wKSlg==,2019-04-29,-34.5540031,-58.4600641,Belgrano,55.0,50.0,19000.0,AV. CONGRESO 2100 - Belgrano,Oficina,Alquiler
eY/tusZOpssC8TpYPGw1UA==,2019-02-15,-34.623380659,-58.4306814847,Caballito,34.0,31.0,10000.0,Alquiler monoambiente en Caballito,Departamento,Alquiler
uyYdehSW21VdaHq2b703sw==,2019-04-04,-34.5583057,-58.463703,Belgrano,71.0,65.0,21800.0,Rivera y Moldes - Semipiso 3 ambientes - Muy bueno - cerca Av. Cabildo y subte linea D,Departamento,Alquiler
AqjlpEbtTz+peV2XT7renw==,2019-04-10,-34.60526,-58.42441,Almagro,184.0,184.0,60000.0,Local de 1 ambiente en Alquiler en Almagro,Local comercial,Alquiler
mc6NdiK04VoC5zJKV0kVGA==,2019-02-01,-34.5957447,-58.4097622,Barrio Norte,53.0,51.0,21000.0,En Alquiler Hermoso departamento 3 ambientes con cochera Fija y baulera,Departamento,Alquiler
Qg9MrqQOFM7m1wpiJoLHbA==,2019-04-15,-34.5876054,-58.4157297,Palermo,34.0,28.0,14000.0,Departamento en Palermo 1 ambiente a estrenar,Departamento,Alquiler
RmItUoLFr/6yZimAFf0xkg==,2019-01-23,-34.6063554,-58.4444953,Villa Crespo,170.0,170.0,23000.0,Alquiler LOCAL - DEPOSITO 170m2 Villa Crespo,Local comercial,Alquiler
v54YwO2b0He8PBGp2kqTRQ==,2019-05-31,-34.5955379,-58.4436587,Villa Crespo,47.0,47.0,18000.0,2 Amb. con Amenities - Thames 500 - Villa Crespo,Departamento,Alquiler
WgN/wZmnc0llkl46c4i6dg==,2019-01-19,-34.5895488519,-58.4106310815,Barrio Norte,89.0,80.0,26000.0,"Hermoso 3 ambientes a  contrafrente abierto, silencioso y luminoso, balcon con vista verde",Departamento,Alquiler
cvhn8ItI4+RNk8XlHLEk6Q==,2019-05-17,-34.591807183,-58.4221684259,Palermo,39.0,39.0,13000.0,Departamento de 2 ambientes en Alquiler en Palermo soho,Departamento,Alquiler
i2jmDSAAYvvXTppiRB7Ijg==,2019-06-07,-34.583717,-58.411696,Palermo,42.0,48.0,14000.0,Luminoso departamento en Palermo. Excelente ubic.,Departamento,Alquiler
qulTRXHZ5jz3mtDB4TXsfQ==,2019-01-10,-34.612113,-58.435233,Caballito,83.0,42.0,20000.0,"Depto 2 amb. Balcón, Terraza y Cochera Caballito",PH,Alquiler
O5ZLoBUuBVX5RT2qg82HFQ==,2019-05-31,-34.573864,-58.440661,Belgrano,98.0,74.0,30000.0,Zapata al 300 c/terraza ppia y cochera!,Departamento,Alquiler
ug7i9O/oh7PDg98T7e+pUA==,2019-04-25,-34.5518037015,-58.4685780651,Nuñez,48.0,44.0,19500.0,IMPECABLE DEPARTAMENTO EN ALQUILER,Departamento,Alquiler
Q7IhI/NtRVsIAuqLZLX2Ew==,2019-03-27,-34.6010638,-58.4372446,Villa Crespo,155.0,155.0,30000.0,Local de 1 ambiente en Alquiler en Villa crespo,Local comercial,Alquiler
JXmCKgWfR1GAsH2d99XWNw==,2019-01-18,-34.6270168,-58.4496457,Caballito,66.0,58.0,17000.0,"Departamento 66m² 3 ambientes en Achával al 200, Caballito, Capital Federal, Caballito, por $ 17.000",Departamento,Alquiler
6qXqPtWKVY3m854KDfRGBA==,2019-03-08,-34.549145,-58.45996,Nuñez,76.0,66.0,24000.0,Departamento  3 ambientes Alquiler Nuñez,Departamento,Alquiler
irjhYewtnYPFS6hF3Atgpw==,2019-03-25,-34.5946029,-58.4040515,Recoleta,33.0,30.0,11000.0,ALQUILER MONOAMBIENTE C/BALCÓN - INMEJORABLE UBICACIÓN,Departamento,Alquiler
KU0wxN+McctyE6txXZa+RA==,2019-06-10,-34.6309321174,-58.4655938164,Flores,50.0,46.0,13800.0,Excelente S/Piso frente c/balcón aterrazado de 16 años c/bajas expensas Impecable!,Departamento,Alquiler
rpZlGR0j+2xIEpltMZVcdw==,2019-03-30,-34.585317,-58.425545,Palermo,50.0,47.0,18000.0,DIVINO MONOAMBIENTE EN ALQUILER EN PALERMO SOHO,Oficina,Alquiler
E7rEfVzjOKmHe0xvl6SY3g==,2019-03-13,-34.6178923,-58.4360343,Caballito,116.0,110.0,20000.0,DEPARTAMENTO EN ALQUILER,Departamento,Alquiler
j/QgXiOFu8RU/6Z/iMfiXQ==,2019-02-08,-34.5885527,-58.4106034,Palermo,85.0,80.0,22000.0,DEPARTAMENTO EN ALQUILER,Departamento,Alquiler
tWCULwq+8Immy98dtshHhw==,2019-03-15,-34.57304,-58.479785,Villa Urquiza,52.0,50.0,17000.0,Departamento en Av. Olazabal y Miller - Villa Urquiza,Departamento,Alquiler
BHn67e99+T0yGX2nwQUsfg==,2019-04-12,-34.591154,-58.3782268,Recoleta,116.0,110.0,35000.0,3 AMBIENTES EN RECOLETA CON 3 BALCONES.EDIFICIO ANTIGUO CLASICO DE ESTILO,Departamento,Alquiler
Z2AhtqB9XyJ4jcmo9WpD3w==,2019-02-27,-34.5965465,-58.3806343,Barrio Norte,56.0,27.0,10500.0,Departamento - Plaza S.Martin,Departamento,Alquiler
+FcZBvBVpV+STQ9LKg2Z3A==,2019-03-21,-34.62066269,-58.42707443,Almagro,75.0,40.0,18000.0,México  4300 1°  - $ 18.000 - Departamento Alquiler,Departamento,Alquiler
Gm8iIYjhu3QNfMw6zBiAlQ==,2019-03-27,-34.5855865,-58.4797973,Villa Urquiza,30.0,30.0,10500.0,AV.DE LOS INCAS 5000/VILLA URQUIZA.ALQUILER-1 AMBIENTE,Departamento,Alquiler
3LccRxnoRQYMbotCUlL5OA==,2019-03-18,-34.5877672341,-58.4336004074,Palermo,48.0,48.0,26000.0,Alquiler. Local comercial 48m². Sin expensas. Apto Oficina. Excelente ubicación. Gorriti 5200 y Godoy Cruz. Palermo.,Local comercial,Alquiler
7kuJlaXGcijmTfFp0Ta9tA==,2019-03-19,-34.6201534,-58.4342895,Caballito,82.0,77.0,25000.0,Departamento 4 Amb c/Esp Guardacoche Guayaquil 400 Alquiler,Departamento,Alquiler
4vUZTLZT/VM801+SbBvW/w==,2019-03-01,-34.5887109,-58.404672,Recoleta,35.0,35.0,14000.0,Departamento en Austria al 2000 de 1 ambiente y medio - Recoleta,Departamento,Alquiler
WrAcQ7viYA7SaHgwh443Jw==,2019-05-10,-34.5725379,-58.4796957,Villa Urquiza,45.0,45.0,15500.0,Hermoso depto de 2 ambientes c/ toilette y baulera,Departamento,Alquiler
d0RcrdKVM4mgCoFr4PYHcg==,2019-02-22,-34.5887104561,-58.4238115841,Palermo,43.0,34.0,15500.0,ALQUILADO - HERMOSO MONOAMBIENTE - MALABIA 1900 - PALERMO,Departamento,Alquiler
yOqvdrNPh193Mhjn8BOyKg==,2019-03-21,-34.5927663,-58.4148821,Barrio Norte,84.0,70.0,28000.0,Alquiler: 3 ambientes con cochera · Baño y toilette · Excelente zona!,Departamento,Alquiler
7fCXElJBcG41+G0ue2i5/w==,2019-01-19,-34.583695,-58.424612,Palermo,42.0,42.0,14000.0,ALQUILER MONOAMBIENTE A ESTRENAR!,Casa,Alquiler
fui0vUhshVmBVu9XXJ3nEw==,2019-03-08,-34.5542687,-58.4629244,Belgrano,57.0,41.0,18000.0,DEPARTAMENTO EN ALQUILER,Departamento,Alquiler
188edFZBH5vE85a3O8oZIA==,2019-02-13,-34.5950932,-58.4371128,Palermo,105.0,105.0,55000.0,Local de 1 ambiente en Alquiler en Palermo,Local comercial,Alquiler
BgMazOsuc838dD8ZpnNtcg==,2019-03-07,-34.5974956,-58.439777,Almagro,45.0,40.0,16000.0,Alquiler: Hermoso 2 ambientes. Piscina • Solarium • SUM • Parrilla.,Departamento,Alquiler
QnQ4595BkokxuRtuPNxrww==,2019-05-10,-34.5857355,-58.418948,Palermo,55.0,55.0,22000.0,Departamento - Palermo,Departamento,Alquiler
zVGZ384ViqISYYJRLj44YQ==,2019-02-22,-34.6250644313,-58.4714895185,Flores,131.0,122.0,25000.0,5 ambientes con cochera 128 mts tiene un anexo de 38 mts 2 bauleras  en exelente estado,Departamento,Alquiler
gISkJvTJGfMHowKxg2Fflg==,2019-03-11,-34.5965884,-58.4431011,Villa Crespo,38.0,28.0,10000.0,Departamento de 1 ambiente en Alquiler en Villa crespo,Departamento,Alquiler
5cLhA2reOnP0j3z56oehpQ==,2019-03-20,-34.6013232,-58.4328358,Villa Crespo,62.0,55.0,18000.0,DEPARTAMENTO EN ALQUILER,Departamento,Alquiler
jgT8g0OMQ8lptMc++fsZVQ==,2019-02-12,-34.5891729,-58.39518,Recoleta,35.0,35.0,18000.0,Local - Recoleta,Local comercial,Alquiler
4WuvQVXkfWwT8Fu0KEKkfQ==,2019-03-18,-34.5976047,-58.4213309,Palermo,71.0,55.0,17000.0,RESERVADO !!! 3 AMB PH Amoblado y equipado con patio / Muy Luminoso / Alquiler,PH,Alquiler
VQ/VPMRxmZlG7/qhgg3tBQ==,2019-05-23,-34.5728372,-58.4857904,Villa Urquiza,35.0,30.0,12000.0,Lindo Monoambiente en excelente ubicación,Departamento,Alquiler
xbEptFyElKlLEkksM5Rqbg==,2019-05-18,-34.5893395,-58.3967954,Recoleta,80.0,80.0,32000.0,"3 dormitorios amoblado, 2 baños DISPONIBLE Apto Empresas!",Departamento,Alquiler
wey3GoBW/4Lt7FBCN0IBjA==,2019-05-22,-34.5707147216,-58.4350795968,Belgrano,110.0,93.0,29000.0,SEMIPISO CALLE - BALCON - VISTA ABIERTA,Departamento,Alquiler
Phf2NNsBq7fI+j06+8s2Vw==,2019-01-18,-34.6030332,-58.3953523,Barrio Norte,30.0,30.0,13500.0,Departamento - Barrio Norte,Departamento,Alquiler
UVJKQPfcvU53xn/GoDsn3Q==,2019-05-29,-34.6078766,-58.4304134,Almagro,35.0,35.0,13500.0,Rio de Janeiro 600 - 1 Ambiente - Almagro,Departamento,Alquiler
12o6e9b8shZ1B9b5oaNegg==,2019-03-15,-34.587773,-58.420369,Palermo,39.0,39.0,12000.0,Monoambiente en Alquiler - Palermo.,Departamento,Alquiler
wGtlznve4vOYN3BtVfZ+zQ==,2019-03-23,-34.595123058,-58.3994590644,Recoleta,83.0,75.0,21000.0,DEPARTAMENTO EN ALQUILER,Departamento,Alquiler
DxU7Z8E88zcvM2mcQGXG1g==,2019-04-16,-34.6006475806,-58.4439177248,Villa Crespo,70.0,60.0,25000.0,PH EN ALQUILER,PH,Alquiler
uE9pqj3728Vioqhq5Guceg==,2019-04-12,-34.595317,-58.398232,Barrio Norte,130.0,124.0,27500.0,Departamento en alquiler sobre Av. Santa Fe,Departamento,Alquiler
S7ZKhYWDf3OP9VxnLzkwIw==,2019-02-02,-34.5898724656,-58.4477352804,Villa Crespo,45.0,40.0,13500.0,"EXCELENTE 2 AMBIENTES A METROS DE AV.DORREGO IMPECABLE TODO EXTERNO CERCANIAS SUBTE LINEA B BALCON ATERRAZADO CONTRAFRENTE, NUEVO  RECIEN PINTADO, PARRILLA.  A METROS PARQUE LOS ANDES",Departamento,Alquiler
BRLiL5hlUyKn7jUtVKq1KQ==,2019-03-01,,,Caballito,65.0,62.0,20000.0,Departamento - Caballito,Departamento,Alquiler
NxREKjKEwV8DaCokho3F+w==,2019-06-10,-34.5965884,-58.4431011,Villa Crespo,38.0,28.0,9000.0,Departamento de 1 ambiente en Alquiler en Villa crespo,Departamento,Alquiler
g+ZVjReiaZYsv6oIhhmqxw==,2019-01-30,,,Palermo,76.0,71.0,45000.0,alquiler departamento en Las Cañitas 3 ambientes en Quartier Polo,Departamento,Alquiler
Pd0Mwb4Rp6WUETF/gEBxzg==,2019-04-23,-34.5702226,-58.4511137,Belgrano,35.0,31.0,12000.0,DEPARTAMENTO EN ALQUILER,Departamento,Alquiler
iYiD92XoNCaN5fq3ZQwmYA==,2019-05-15,-34.6272316,-58.45124435,Caballito,85.0,85.0,25000.0,Alberdi   1600 5°  - $ 25.000 - Departamento Alquiler,Departamento,Alquiler
BR1aEjBEzG1WtCbpswVgcQ==,2019-04-23,-34.5726575,-58.4440099,Belgrano,50.0,50.0,17000.0,Departamento con cochera y pileta,Departamento,Alquiler
Sj+X6RjyeBbOWF3lbtfGgQ==,2019-02-09,-34.597999,-58.425692,Villa Crespo,36.0,33.0,11800.0,Exc Alquiler 1 amb divisible Balcon Pileta Parilla,Departamento,Alquiler
QC+nMQkx25r01e60UVfPEA==,2019-05-08,-34.6148284,-58.4251246,Almagro,47.0,42.0,16000.0,D'Odorico Propiedades -,Departamento,Alquiler
rXOuzX2uzDN6uiTzPxk3Dg==,2019-05-08,-34.6028127421,-58.4223683322,Almagro,62.0,59.0,20000.0,Departamento de 3 ambientes en Alquiler en Almagro,Departamento,Alquiler
9XDmj+gvPiveQI4wdlUHwQ==,2019-04-24,-34.5696082,-58.4322171,Palermo,80.0,75.0,32000.0,alquileres tres ambientes cochera Las Cañitas,Departamento,Alquiler
EID5r+LJG08dw2IukD88Lg==,2019-06-15,-34.5965884,-58.4431011,Villa Crespo,38.0,28.0,9000.0,Departamento de 1 ambiente en Alquiler en Villa crespo,Departamento,Alquiler
AVzxKtq1Q+9aoMECH6gaRw==,2019-01-03,-34.5947609,-58.4077298,Barrio Norte,40.0,40.0,11000.0,"Laprida y Charcas- 2 amb, 40 m2 - Alquiler departamento - Barrio Norte",Departamento,Alquiler
SlVNeAI0TgBiBaf5sBh64A==,2019-05-04,-34.60105896,-58.43265152,Villa Crespo,36.0,36.0,10500.0,Frias  500 5°  - $ 10.500 - Departamento Alquiler,Departamento,Alquiler
X7l1/aPmb6Ek0QYC5cYGgQ==,2019-05-02,-34.567242,-58.460659,Belgrano,96.0,90.0,28000.0,Alquiler Departamento en Belgrano Capital Federal SUCRE 3000,Departamento,Alquiler
SsCvdeOCh3kl9E/xvUOgew==,2019-04-02,-34.545588,-58.465563,Nuñez,106.0,91.0,29000.0,OFICINA EN ALQUILER NUÑEZ,Oficina,Alquiler
/xoKr1dBR5U9AV4CEviMyA==,2019-01-30,-34.5771039,-58.4341335,Palermo,50.0,36.0,10500.0,MONOAMBIENTE EN PISO ALTO MUY LUMINOSO,Departamento,Alquiler
2gMRxBD1zR+Qi9md4Xo+SQ==,2019-02-21,-34.5967954411,-58.4278703835,Villa Crespo,145.0,145.0,39000.0,PH ideal oficina en alquiler en el barrio de Villa Crespo (sin expensas),PH,Alquiler
zKBIbZC59K9cmVObTUvvSA==,2019-06-10,-34.5648051,-58.4399881,Belgrano,48.0,42.0,17000.0,Depto 2amb en Las Cañitas!!,Departamento,Alquiler
wWf67FbFJpSFrjW06cFx3A==,2019-05-30,-34.6029947,-58.3913785,Barrio Norte,31.0,31.0,12500.0,ALQUILER MONOAMBIENTE. APTO ROFESIONAL. BARRIO NORTE,Departamento,Alquiler
lgiIgOS36puYuwijyzrEmQ==,2019-01-24,-34.589723,-58.4325664,Palermo,122.0,108.0,25000.0,Departamento tipo Loft - Palermo Soho,Departamento,Alquiler
u+VWvYPoKrZtPx7V1gCLsQ==,2019-03-14,-34.6106441,-58.449169,Caballito,127.0,117.0,27000.0,Departamento - Villa Crespo,Departamento,Alquiler
EHOyD0swFLX3tP3itZaMTA==,2019-02-08,-34.5427503,-58.4601452,Nuñez,46.0,44.0,13000.0,Muy buen dos ambientes  en el barrio de Nuñez,Departamento,Alquiler
S0ufy3pa22G1Fk+GvsBv/A==,2019-04-18,-34.5762877,-58.4969531,Villa Urquiza,53.0,49.0,23000.0,"Aizpurúa y Rivera Espectacular 2 ambientes con cochera en alquiler, edificio con amenities",Departamento,Alquiler
trIK2L+rATgrjGV3HgBa6w==,2019-02-08,-34.5906679,-58.4196587,Palermo,200.0,120.0,50000.0,"Soler y Medrano- PH 4 amb, terraza, patio, reciclado a nuevo-Alquiler PH Palermo",Oficina,Alquiler
QsRs4R12xbMWOAg0CDKNWw==,2019-01-29,-34.5913553,-58.4305254,Palermo,64.0,60.0,35000.0,ALQUILER DEPARTAMENTO 3 AMBIENTES EQUIPADO 35000 PAQUETE,Departamento,Alquiler
3VHd30PTx93+hww/Jed6Pg==,2019-01-16,-34.5927614,-58.4161349,Palermo,36.0,34.0,14000.0,DEPARTAMENTO EN ALQUILER,Departamento,Alquiler
/1eFFIpd9AMNFqdhzCTq/g==,2019-04-14,-34.5995431,-58.4435034,Villa Crespo,43.0,40.0,13500.0,Departamento de 2 ambientes en Alquiler en Villa crespo,Departamento,Alquiler
98z+y0boejA//t79hyl5IA==,2019-02-19,-34.5585893,-58.4494088,Belgrano,94.0,94.0,22000.0,"Departamento en alquiler en Belgrano, tres ambientes.",Departamento,Alquiler
dOGqpvLSkcpdRcJGyHM9OQ==,2019-03-20,-34.5542433,-58.4497275,Belgrano,50.0,48.0,18000.0,DEPARTAMENTO EN ALQUILER,Departamento,Alquiler
DCeKpf7qRvMJiKxJVYYOGg==,2019-04-15,-34.6266519,-58.4529795,Caballito,46.0,40.0,11000.0,Ramon Falcon 1600 y Curapaligue - 2 ambientes Planta Baja - Patio,Departamento,Alquiler
mGU0Vk/0JgX8sqyFTmRc/w==,2019-06-04,-34.579823,-58.415842,Palermo,33.0,30.0,15000.0,"ALQUILER 2 AMB ,PALERMO,,,R INDIA 2800",Departamento,Alquiler
y8TLXwhj6LFDumRK83NiTw==,2019-05-11,-34.590881,-58.424551,Palermo,63.0,58.0,22500.0,DEPARTAMENTO 3 AMBIENTES. ALQUILER. PALERMO SOHO,Departamento,Alquiler
2eiD9mhS6kG+TLnJLRCPfg==,2019-04-25,-34.5844316,-58.4059117,Barrio Norte,35.0,35.0,14000.0,Pacheco de Melo al 3000,Departamento,Alquiler
z6/njHD58cc4goYGv3Nxyg==,2019-04-05,-34.5943097,-58.4371725,Villa Crespo,70.0,70.0,35000.0,LOCAL EN ALQUILER LOYOLA AL 700,Local comercial,Alquiler
zh/DKjPwviZLddeAN8lDBg==,2019-04-04,-34.5947494,-58.3981914,Recoleta,45.0,40.0,12000.0,DEPARTAMENTO EN ALQUILER,Departamento,Alquiler
5g4g6g3VnaOCH/DmBKaydA==,2019-03-19,-34.5774703789,-58.422504027,Palermo,42.0,38.0,20000.0,DEPARTAMENTO EN ALQUILER,Departamento,Alquiler
qebEjpv+lUCBBE7vFzG2bA==,2019-01-03,-34.5568341,-58.4775737,Nuñez,35.0,30.0,11000.0,Monoambiente c/ División - Azurduy 3600 - 35m2 Totales,Departamento,Alquiler
Lge+jYtQKtsdk6L7ZnkCIg==,2019-03-29,-34.5985323877,-58.4119440882,Barrio Norte,45.0,42.0,17000.0,Alquiler   EN TORRE PREMIUN 2 AMB  TODO EXTERNO CON AMENITIES 2 PILETAS SEGURIDAD LAS 24HS,Departamento,Alquiler
/2cq55qHCekaE6AusqQKFA==,2019-05-07,-34.578787,-58.406842,Barrio Norte,50.0,50.0,21000.0,2 AMBIENTES CON AMENITIES APTO PROFESIONAL,Departamento,Alquiler
FPTuwGHu88fYeAGk8vNPtg==,2019-03-19,-34.597199,-58.4202692,Almagro,130.0,130.0,40000.0,Alquiler: Hermoso local en Palermo · 130 m2,Local comercial,Alquiler
sJ2UUvMghqXLOrfcJK771Q==,2019-02-25,-34.5967442,-58.4458048,Villa Crespo,35.0,33.0,9500.0,Excelente Monoambiente en Villa Crespo,Departamento,Alquiler
zsFNashr6Fm4/0N/sJehaQ==,2019-06-22,-34.5680209,-58.4929241,Villa Urquiza,58.0,49.0,18000.0,ALQUILER 3 AMBIENTES - VILLA URQUIZA,Departamento,Alquiler
6lZGS2cQPj6J3VLAS2k5HA==,2019-06-07,-34.5834314,-58.4268409,Palermo,60.0,54.0,24000.0,Departamento - Palermo,Departamento,Alquiler
eEjHMqRtQWVhRr3UCVMXKg==,2019-04-12,-34.5703398,-58.4874673,Villa Urquiza,43.0,39.0,11000.0,Departamento 1 Ambiente Contrafrente con Balcón,Departamento,Alquiler
1VG65BK+EYtJENDyJHLnDA==,2019-04-09,-34.616549,-58.429656,Caballito,35.0,35.0,12000.0,Senillosa y Av Rivadavia. 2 amb cocina separada recién pintado,Departamento,Alquiler
FUYbC/nphOw2Z2u94hwjQg==,2019-02-09,-34.60875,-58.42656,Almagro,120.0,120.0,25000.0,Local de 1 ambiente en Alquiler en Almagro,Local comercial,Alquiler
G62fLXIFQ3Oi2KQkaGHeqQ==,2019-01-31,-34.5686123,-58.4382158,Belgrano,55.0,55.0,17000.0,Departamento - Las Cañitas,Departamento,Alquiler
PX7//iLCL+Q3GCZXEdHqpg==,2019-01-04,-34.5985323877,-58.4119440882,Barrio Norte,45.0,42.0,15500.0,GALLO 900 ::: Alquiler   EN TORRE PREMIUN 2 AMB  TODO EXTERNO CON AMENITIES 2 PILETAS SEGURIDAD LAS 24HS,Departamento,Alquiler
J35hCrRK1QYCpvZe/+0XtQ==,2019-05-01,-34.6036016055,-58.428766581,Almagro,55.0,40.0,17500.0,ALMAGRO. Alquiler 2 ambientes con balcon Terraza c/sin Cochera,Departamento,Alquiler
tS9psTqDfINTRD5fCdpmqQ==,2019-03-23,-34.5512514236,-58.4586002476,Nuñez,138.0,88.0,36000.0,Hermoso PH para uso profesional o vivienda,PH,Alquiler
oMtaw21wp+MU7U8pi/KaiQ==,2019-03-12,-34.5915846,-58.4010955,Barrio Norte,112.0,112.0,25000.0,OPORTUNIDAD! 4 AMB C/ DEP  112 M²  LUMINOSO,Departamento,Alquiler
KSS6xulF0M0QEpXkR6lXvw==,2019-03-14,-34.5533115,-58.4558141,Belgrano,58.0,50.0,22000.0,Enorme 2 amb con cochera fija pileta amenities,Departamento,Alquiler
VMRjeTSz0rO+kwC9raoNBw==,2019-01-16,-34.5481293,-58.4597185,Nuñez,115.0,75.0,29000.0,"Departamento 3 amb. en alquiler con cochera en doble altura. - 11 de septiembre 3300, Nuñez C.A.B.A",Departamento,Alquiler
RVZ4GMRstkrMHtFnZeG5lQ==,2019-05-05,-34.5809385,-58.4269379,Palermo,35.0,35.0,15000.0,DEPARTAMENTO EN ALQUILER,Departamento,Alquiler
Q9C5Ui9AKwAChuTudqWUCA==,2019-04-25,-34.5908869,-58.4298061,Palermo,84.0,64.0,30000.0,Departamento - Capital Federal,Departamento,Alquiler
EyOI0cBkRJvu+KRxIFCJqQ==,2019-02-06,-34.5968046,-58.4003518,Barrio Norte,39.0,39.0,12500.0,PH EN ALQUILER,PH,Alquiler
VWHq6unueacXR2FA4kxFfw==,2019-06-14,-34.5925816434,-58.3906735782,Recoleta,53.0,48.0,17000.0,Departamento - Recoleta,Departamento,Alquiler
Io3aJvvyRawO6NqPg7OCoA==,2019-01-09,-34.5730121,-58.4454925,Belgrano,106.0,70.0,9500.0,Departamento alquiler,Departamento,Alquiler
9BDoFB0mBls1gmc0PiVN6A==,2019-04-17,-34.5501867,-58.4622968,Nuñez,68.0,58.0,25000.0,Departamento 2  AMBIENTES SUPER LUMINOSOS EN  CON HERMOSA TERRAZA- Nuñez DIVINO!,Oficina,Alquiler
wEtZQ4OypUjNpQktBogvbg==,2019-02-22,-34.63123322,-58.46145248,Flores,172.0,156.0,30000.0,Av Alberdi  2400 2°  - $ 30.000 - Departamento Alquiler,Departamento,Alquiler
SW0TX7JMg5+iKQ+diRKJTA==,2019-03-16,-34.593942,-58.400877,Recoleta,65.0,62.0,14000.0,Dpto 2/3 ambientes pb con patio reciclado!,Departamento,Alquiler
j1MdlFEyn+9sKqSNOhWncg==,2019-01-08,-34.5579882,-58.4560412,Belgrano,45.0,40.0,18000.0,"ARCOS 2300  DOS AMBIENTES  COCHERA , PILETA ALQUILER",Departamento,Alquiler
acxO+Ueg7wOQPL9yx4br4Q==,2019-04-09,-34.57426453,-58.49217987,Villa Urquiza,55.0,45.0,21500.0,Pedro Ignacio Rivera  5400 6°  - $ 21.500 - Departamento Alquiler,Departamento,Alquiler
Yn1HhlwX8s8ampeVBM7wCQ==,2019-04-18,-34.6009058,-58.4045797,Barrio Norte,118.0,110.0,23000.0,Departamento - Barrio Norte,Departamento,Alquiler
eL4wfRlPI+d6NdgjMiYrOA==,2019-06-25,-34.5619536,-58.4442904,Belgrano,52.0,44.0,20500.0,DEPARTAMENTO EN ALQUILER,Departamento,Alquiler
F3U8mD3v7dRKuqi5pOfbzQ==,2019-02-05,-34.6209259,-58.44587326,Caballito,50.0,50.0,14000.0,Avda. Rivadavia  5800 8°  - $ 14.000 - Departamento Alquiler,Departamento,Alquiler
0IrgdPgWPtOH3auSt++WeQ==,2019-01-19,-34.5978613,-58.4212625,Palermo,90.0,90.0,44000.0,LOCAL EN ALQUILER,Local comercial,Alquiler
cRg+eJPvJETbmDHIpRSTmw==,2019-02-14,-34.603321,-58.418575,Almagro,42.0,42.0,11500.0,Alquiler Departamento en Almagro Capital Federal Av. Corrientes 3859,Departamento,Alquiler
urZ+9L/OlNmfsD6FeaUEgw==,2019-01-27,-34.5895459,-58.3973636,Barrio Norte,93.0,85.0,25000.0,Hermoso departamento con balcón aterrazado,Departamento,Alquiler
QcSYZGY5r+Wx79vblJ/ggg==,2019-04-02,-34.5995245,-58.4429602,Villa Crespo,35.0,30.0,11000.0,DEPARTAMENTO EN ALQUILER,Departamento,Alquiler
grkq/MLVeFPvnXsPEZ9hrg==,2019-01-16,-34.6189399,-58.4326785,Caballito,95.0,84.0,15000.0,DEPARTAMENTO EN ALQUILER,Departamento,Alquiler
2dXa8TXEu95n6YOsZJx6Kg==,2019-01-04,-34.5927733,-58.4227121,Palermo,46.0,43.0,12500.0,"Gascon 1500 piso 4to, 2 amb en alquiler.",Departamento,Alquiler
wU4rVS10OPCfIUEqqlNrQQ==,2019-05-10,-34.5755461832,-58.4395915693,Palermo,51.0,42.0,17000.0,DEPARTAMENTO EN ALQUILER,Departamento,Alquiler
U+8nCVBvRqdpnp04srSxJA==,2019-05-29,-34.5555563,-58.4552953,Belgrano,38.0,35.0,13000.0,HERMOSO MONOAMBIENTE EN BELGRANO,Departamento,Alquiler
cXs/VrJ5qcl4X/4EYnqIrQ==,2019-03-23,,,Caballito,51.0,51.0,12000.0,MUY LINDO 3 AMB CONTRAFRENTE MUY LUMINOSO,Departamento,Alquiler
QRNZdWD7zF9G8T4Z95USjw==,2019-02-14,-34.5785392,-58.4231493,Palermo,42.0,38.0,16000.0,Departamento - Palermo,Departamento,Alquiler
xjr7MIeQ/IFtnkbu8uSi1A==,2019-05-31,-34.5922709,-58.3941751,Recoleta,33.0,30.0,14000.0,Ayacucho y Melo,Departamento,Alquiler
OOlzoW8NAIrgw1yW9Rz3SQ==,2019-01-31,-34.6108382,-58.4289494,Almagro,78.0,55.0,18000.0,Almagro 3 Amb con Terraza en 8° Piso. Super luminoso.,Departamento,Alquiler
r3LFiBmPz3okdjYy6esxqA==,2019-06-26,-34.592111,-58.4329192,Palermo,41.0,38.0,13000.0,Alquiler Departamento 1 ambiente grande SIN GARANTIA - Palermo Soho,Departamento,Alquiler
+p6SB8PfoiQUR7sl3UoV0A==,2019-03-28,-34.5799927,-58.4081181,Palermo,76.0,70.0,52500.0,PALACIO BELLINI  AMOBLADO- Palermo Chico coch AMENITIES,Departamento,Alquiler
/yLaeOLmf19cGJfMZW7GCQ==,2019-06-17,-34.5949765,-58.4294432,Villa Crespo,57.0,54.0,15000.0,ALQUILER 2 AMBIENTES EN VILLA CRESPO,Departamento,Alquiler
8BjJjhwj9u/kNo+7qDTuyg==,2019-06-05,-34.591648,-58.407143,Barrio Norte,32.0,32.0,13500.0,Alquiler Departamento en Barrio Norte Capital Federal Aguero 1600,Departamento,Alquiler
cebadBAMjSH9jMbrDj24Tg==,2019-03-28,-34.594624,-58.423107,Palermo,71.0,62.0,20000.0,Alquiler 3 ambs amplios con balcón en Palermo,Departamento,Alquiler
6kYrx0qxft7LCBvNB2ebzw==,2019-01-06,-34.572692,-58.472591,Villa Urquiza,190.0,130.0,43000.0,Casa 4 amb. quincho y Terraza -Urquiza / Belgrano,Casa,Alquiler
WgI2r7kiqK0vWv01w8iBOw==,2019-06-08,-34.5941976927,-58.4133307841,Barrio Norte,63.0,51.0,23000.0,DEPARTAMENTO EN ALQUILER,Departamento,Alquiler
XQTwmHcBmUpz/ZMitOJIfw==,2019-03-19,-34.5567845,-58.4477084,Belgrano,40.0,32.0,14500.0,RESERVADO  -  Av. Del Libertador al 6000 - Belgrano // ALQUILER: Monoambiente con balcón,Departamento,Alquiler
0l08qxwX5JLoIZrVgCW6TA==,2019-01-03,-34.5898877,-58.4099335,Barrio Norte,82.0,77.0,29000.0,Departamento - Barrio Norte,Departamento,Alquiler
RsTFl9axLb52jNJ1HsHtow==,2019-02-01,-34.5992204608,-58.4240261609,Palermo,40.0,40.0,15000.0,"Moderno P.H con entrada independiente, patio y cochera, a metros de Av. Córdoba.",PH,Alquiler
W8VK6/r4pAk+f6o1h8gtGg==,2019-05-31,-34.6031983574,-58.4459660365,Villa Crespo,78.0,78.0,23000.0,Depto.tipo casa de 3 ambientes en Alquiler en Villa crespo,PH,Alquiler
mfzBGh6A6aDe75q2ROMEXQ==,2019-01-15,-34.5980874,-58.400915,Barrio Norte,65.0,55.0,17900.0,DEPARTAMENTO EN ALQUILER,Departamento,Alquiler
6x1s1I/6IK9o4T0yPyd+GQ==,2019-02-27,-34.6279458,-58.4433316,Caballito,40.0,37.0,10500.0,Emilio Mitre 400 y Bonifacio - Monoambiente con balcon y cocina,Departamento,Alquiler
ws2+pXJKaDkR87XPWaqhXQ==,2019-06-13,-34.5950932,-58.4371128,Palermo,105.0,105.0,58000.0,Local de 1 ambiente en Alquiler en Palermo,Local comercial,Alquiler
WOxF7k9zpeYV4qsP274hAg==,2019-03-24,-34.591359,-58.407762,Palermo,40.0,39.0,16000.0,"ALQUILER 2 AMBIENTES, PALERMO",Departamento,Alquiler
2D+TJD2qOEV+KFYH9JoERw==,2019-06-19,-34.5918318,-58.4086988,Recoleta,107.0,102.0,25000.0,GUEMES 2900,Departamento,Alquiler
rliHvjr2uKb7K23QzmWUmg==,2019-02-13,-34.5790692,-58.4152134,Palermo,82.0,70.0,25000.0,--RESERVADO-- Excelente semipiso al frente luminoso con cochera!,Departamento,Alquiler
dsv+alKG+JV5wOPi1mkKCw==,2019-03-26,-34.561674,-58.443593,Nuñez,78.0,75.0,22500.0,3 AMBIENTES CON COCHERA,Departamento,Alquiler
pVNDNXkq6LyYvtxY8zThhw==,2019-01-10,-34.563292,-58.485358,Villa Urquiza,46.0,42.0,13500.0,MONOAMBIENTE DIVIDIDO CON BALCÓN - VILLA URQUIZA,Departamento,Alquiler
svkML+aExqQiw5EkLyCScA==,2019-04-08,-34.5865969,-58.4231564,Palermo,49.0,49.0,19000.0,SE ALQUILA DPTO 3 AMB PALERMO,Departamento,Alquiler
LAUrSXkLvtI/ILBsHo80CQ==,2019-04-25,-34.5721560604,-58.446021937,Belgrano,53.0,49.0,17500.0,Precioso 2amb en Ubicación inmejorable Luminoso al Frente,Departamento,Alquiler
BiUjZE25AYPGwj6L5obZjQ==,2019-03-31,-34.5949568,-58.391993,Recoleta,37.0,29.0,14500.0,RESERVADO Arenales al 1700 - Recoleta // ALQUILER: 2 ambientes,Departamento,Alquiler
BUVWZ5vdeMZjSTh/DUfXxg==,2019-06-03,-34.6114447,-58.4209936,Almagro,30.0,30.0,10000.0,Departamento - Almagro,Departamento,Alquiler
tFf4+H5M5FqeLrqw6tcouw==,2019-03-16,-34.5994347,-58.4150535,Almagro,45.0,45.0,17000.0,DEPARTAMENTO EN ALQUILER,Departamento,Alquiler
aX2ZpnIPg2Z5ZlsYQwetGA==,2019-01-16,-34.5899212,-58.4232282,Palermo,37.0,35.0,12000.0,Palermo. Dúplex al frente de 2 ambientes en alquiler,Departamento,Alquiler
qjbusQKSdhWnBxV7BGRFEw==,2019-02-13,-34.5979436,-58.4095198,Palermo,100.0,100.0,50000.0,EXCELENTE LOCAL EN ESQUINA AV. CORDOBA Y LAPRIDA,Local comercial,Alquiler
nH34xJ8WtmKc0zdr/aRFyw==,2019-06-09,-34.597854,-58.397076,Barrio Norte,35.0,35.0,11000.0,MONOAMBIENTE ZONA DE FACULTADES,Departamento,Alquiler
NL1oC3krQeEger+aHKVoLw==,2019-05-10,-34.5965884,-58.4431011,Villa Crespo,38.0,28.0,10000.0,Departamento de 1 ambiente en Alquiler en Villa crespo,Departamento,Alquiler
Sq0b9xRCNVfz6dbUwCcf3A==,2019-05-05,-34.5870895,-58.4185448,Palermo,35.0,35.0,15000.0,OFICINA EN ALQUILER,Oficina,Alquiler
6qYqQ4Dv3tJ3jb47133ARw==,2019-02-07,-34.6341644,-58.4670727,Flores,65.0,60.0,15650.0,DEPARTAMENTO EN ALQUILER,Departamento,Alquiler
aJwcvJxnZFy050H3ow5vlg==,2019-06-06,-34.597521,-58.396071,Recoleta,35.0,31.0,13000.0,ALQUILER 35 M2  C/ BALCON - VIVIENDA O PROFESIONAL,Departamento,Alquiler
MloAO7Q6n3ANORz88qu2YA==,2019-01-16,-34.5831546,-58.4051589,Barrio Norte,32.0,32.0,13500.0,Departamento - Palermo Chico,Departamento,Alquiler
yjB21GRm0No0OJpY+GsdHA==,2019-03-14,-34.5965394755,-58.3882524847,Barrio Norte,32.0,32.0,22000.0,Local Comercial.  PB: 3 x 10 = 32 m². A metros de Santa Fe,Local comercial,Alquiler
HjnqUuJ1PYopQhJ2+P5iVw==,2019-04-09,-34.5580906,-58.4584717,Belgrano,37.0,35.0,14000.0,DEPARTAMENTO EN ALQUILER,Departamento,Alquiler
K9yul/zjjELC3JB8Jehr8A==,2019-06-05,-34.5967908,-58.3812865,Recoleta,136.0,136.0,55000.0,PISO OFICINA CORPORATIVA-RECOLETA,Oficina,Alquiler
7bOyXp72U48Y7BysKVgy2w==,2019-05-31,-34.5889517424,-58.3834031049,Recoleta,120.0,110.0,30000.0,3 ambientes amplio con dependencias Patio Bullriich Recoleta,Departamento,Alquiler
VMV/YG9IYrR2AA2nZIPaQw==,2019-03-04,-34.60013,-58.44311,Villa Crespo,78.0,72.0,20000.0,Departamento de 4 ambientes en Alquiler en Villa crespo,Departamento,Alquiler
FyycEZxatTznbHuQdNSAkg==,2019-03-04,-34.5862158,-58.3996546,Recoleta,81.0,81.0,39000.0,Local - Recoleta,Local comercial,Alquiler
Dr79Bxwzl7UhgfVYxh5OjA==,2019-01-04,-34.61595917,-58.43745804,Caballito,38.0,38.0,11000.0,Av Acoyte   100 6°  - $ 11.000 - Departamento Alquiler,Departamento,Alquiler
gc40ycQA4wrAXs/craKIIQ==,2019-02-08,-34.6295536,-58.4551186,Flores,93.0,76.0,25000.0,EXCELENTE SEMIPISO 4 AMB AL FRENTE CON PARILLA Y COCHERA FIJA CUBIERTA,Departamento,Alquiler
yFPHTzOmZFB94hjRBrrPvw==,2019-01-18,-34.554069,-58.452506,Belgrano,45.0,45.0,17000.0,Alquiler Belgrano 2 amb con cochera y amenities,Departamento,Alquiler
bJqvDy9pMjGrmVgU7sIwDg==,2019-06-07,-34.5656574,-58.4358327,Palermo,52.0,48.0,23000.0,"Monoambiente divisible en alquiler c/ cochera Las Cañitas, Palermo",Departamento,Alquiler
yL7CISRO+baXPQdv68+mLQ==,2019-06-22,-34.5785739,-58.43757,Palermo,34.0,34.0,17000.0,Departamento Alquiler APTO PROFESIONAL!,Departamento,Alquiler
Or8sIudSxR9rqS1W2ZYphw==,2019-06-13,-34.5598247754,-58.4613590338,Belgrano,36.0,32.0,11500.0,DEPARTAMENTO EN ALQUILER,Departamento,Alquiler
1btZ5BNKj1fqCtto/eSt1Q==,2019-06-08,-34.5809103,-58.4112267,Palermo,160.0,80.0,33000.0,OFICINA EN ALQUILER,Oficina,Alquiler
sNnKhQD17nl3yGKGCJEjdA==,2019-01-11,-34.549386033,-58.4690524603,Nuñez,56.0,52.0,13000.0,DEPARTAMENTO EN ALQUILER,Departamento,Alquiler
4lZ2LobFcf+zfvxGPvr8jQ==,2019-03-09,-34.5967954411,-58.4278703835,Villa Crespo,145.0,145.0,39000.0,Gran oficina en alquiler en el barrio de Villa Crespo (sin expensas),Oficina,Alquiler
SnrIdPH6rrEp1MDW8voOKQ==,2019-02-22,-34.5857738,-58.421718,Palermo,70.0,66.0,18000.0,Duplex en alquiler en Palermo en edificio con amenities y vigilancia permanente.,Departamento,Alquiler
z26Eu/hl8w5eL2rqRIOMzA==,2019-01-10,-34.5985323877,-58.4119440882,Barrio Norte,45.0,42.0,15500.0,Alquiler   EN TORRE PREMIUN 2 AMB  TODO EXTERNO CON AMENITIES 2 PILETAS SEGURIDAD LAS 24HS,Departamento,Alquiler
n7JNBt/NuO2wIu/7Z6/YkA==,2019-04-06,-34.56574,-58.437448,Belgrano,46.0,46.0,22000.0,Departamento 3 amb Las Cañitas,Departamento,Alquiler
/+FDGww3XHYleHpOaZg98g==,2019-03-20,-34.5542433,-58.4497275,Nuñez,50.0,48.0,18000.0,DEPARTAMENTO EN ALQUILER,Departamento,Alquiler
+B/+WCOBL+mh6NKcmsIXTw==,2019-02-21,-34.59316,-58.42851,Palermo,110.0,100.0,26500.0,Departamento de 4 ambientes en Alquiler en Palermo,Departamento,Alquiler
h8RiEOx8oP1QnISRl0+apg==,2019-04-10,-34.5929278,-58.40249,Recoleta,43.0,40.0,15000.0,Depto 2 amb  apto profesional - Recoleta,Oficina,Alquiler
/G6AlqS8EbxHfoXyjWU0IA==,2019-02-28,-34.6172901253,-58.4677883802,Flores,35.0,35.0,13000.0,DEPARTAMENTO EN ALQUILER,Departamento,Alquiler
T4Ps9TG51IFnNaWogEi65A==,2019-01-03,-34.5671042,-58.4652276,Belgrano,104.0,102.0,29000.0,"Alquiler PH Belgrano R, 3 amb c/dep Apto Profes",PH,Alquiler
M3F8T6Pq4hn61E0m0drFpA==,2019-06-06,-34.5970498,-58.4201801,Palermo,34.0,34.0,12000.0,"Departamento 34m² 2 ambientes en Av. Medrano al 1000, Palermo, Capital Federal, Palermo, por $ 12.000",Departamento,Alquiler
5GjiR8sUKaq6ANpn3nQ2BQ==,2019-05-12,-34.5872546,-58.4219167,Palermo,66.0,60.0,28000.0,Alquiler amueblado 3 amb. al frente en excelente estado - Palermo cercano al Botánico,Departamento,Alquiler
fRwNUi7jE1P1CM6maZayWA==,2019-01-06,-34.610765,-58.4147571,Almagro,29.0,28.0,9400.0,Excelente Monoambiente con Balcón piso Alto Luminoso Reciclado en alquiler con cocina separada,Departamento,Alquiler
tuDzIaOLB35nS4sr/HLQ5g==,2019-02-13,-34.5912803625,-58.4066499698,Barrio Norte,35.0,35.0,12500.0,DEPARTAMENTO EXCELENTE UBICACION!! APTO PROFESIONAL,Departamento,Alquiler
EtnKL7uM5llWA0A0sQ1rMg==,2019-06-20,-34.57572556,-58.48783875,Villa Urquiza,43.0,30.0,11500.0,Bucarelli  2300 pb - $ 11.500 - Departamento Alquiler,Departamento,Alquiler
q5tkR+ZFu/haPwiR/jC6iA==,2019-01-16,-34.5802423,-58.4399425,Palermo,87.0,82.0,29000.0,Alquiler 3 ambientes Palermo Hollywood. Cochera amenities.,Departamento,Alquiler
ur6GV6CjoaZKY1DCKH0f0Q==,2019-04-18,-34.6108151,-58.4139167,Almagro,36.0,36.0,14000.0,Almagro - Monoambiente a estrenar,Departamento,Alquiler
5D087wEFbkBnbnRomkAqsQ==,2019-03-14,-34.6064781,-58.4467793,Villa Crespo,50.0,48.0,13000.0,HERMOSO 2 AMBIENTES MUY LUMINOSO ZONA CID CAMPEADOR C/ BALCON,Departamento,Alquiler
fGBc7P7aFw+xSX9gwQQSsA==,2019-03-20,-34.5595153,-58.4455045,Belgrano,139.0,115.0,49000.0,"Oficina comercial de 115 m2, 4 ambientes con cochera en alquiler Belgrano",Oficina,Alquiler
9OBH0dluYqyu0ZyRDkAXaQ==,2019-01-24,-34.5923304,-58.3945896,Recoleta,40.0,36.0,12500.0,Hermoso depto monoambiente divido con amentiees,Departamento,Alquiler
UibuJVDcVqFUKMo+riV/Tg==,2019-04-05,-34.600628,-58.416065,Almagro,35.0,35.0,10600.0,Alquiler Departamento en Almagro Capital Federal Lavalle 3600,Departamento,Alquiler
eM0nfhw89xmHUcUH7DDvaA==,2019-04-24,-34.5875185,-58.3954286,Barrio Norte,40.0,40.0,14000.0,ALQUILER PAQUETE DE AMPLIO  2 AMBIENTES UBICADO EN EXCELENTE ZONA DE BARRIO NORTE.,Departamento,Alquiler
ixWYICsQm59d2ViUtdNNTA==,2019-06-12,-34.5784973,-58.4249447,Palermo,185.0,180.0,55000.0,Godoy Cruz 3261 - PISO A METROS DE AV. DEL LIBERTADOR,Departamento,Alquiler
dkcnkY4KsgP6+UECuFtSfg==,2019-05-06,-34.5808382,-58.4137062,Palermo,76.0,70.0,37000.0,Palacio Bellini - 2 ambientes con cochera,Departamento,Alquiler
yfmrjg7aoktUquukhJliZg==,2019-05-11,-34.5773049,-58.4759119,Villa Urquiza,27.0,27.0,9000.0,LOCAL EN ALQUILER,Local comercial,Alquiler
lzBDz82EuGvXCWf1jFC2kg==,2019-06-14,-34.5955658,-58.3861685,Recoleta,146.0,135.0,49000.0,DPTO 4 AMB C/ESC. Y DEP. EN ALQUILER EXCELENTE ESTADO EN RECOLETA,Departamento,Alquiler
qeOOBoDcLU96E+jNI4HtQQ==,2019-03-18,-34.5800451238,-58.4069971703,Palermo,70.0,70.0,44000.0,IMPERDIBLE 3 AMBIENTES - COCHERA- TORRES LAS PLAZAS - SALGUERO Y LIBERTADOR,Departamento,Alquiler
c7gXslvpYbo7kyoGQmxU3A==,2019-02-04,-34.5912417048,-58.4025563567,Recoleta,85.0,76.0,28000.0,HERMOSO SEMIPISO 4 AMBIENTES CON ESPACIO GUARDACOCHE Y BAULERA,Departamento,Alquiler
eVN/YWldDBpiN8cDGy86wg==,2019-02-08,-34.6011756,-58.4239568,Almagro,33.0,33.0,10000.0,departamento de 2 ambientes luminosos con balcon,Departamento,Alquiler
NniAKv7ezw7QXRV1XneWfA==,2019-04-23,-34.5860913,-58.4201544,Barrio Norte,45.0,45.0,20000.0,2 ambientes amoblado y equipado en Malabia y Charcas,Departamento,Alquiler
CaWV4AftjGhWEs3E7xcrOA==,2019-04-10,-34.6148304,-58.4251842,Almagro,77.0,64.0,25000.0,Dormitorio con baño en suite y Con cochera,Departamento,Alquiler
l11DliJLptpnjrYo26tenQ==,2019-01-10,-34.5895459,-58.3973636,Recoleta,55.0,52.0,14000.0,Departamento 3 ambientes: piso 4 en Alquiler.,Departamento,Alquiler
8OOfqFhA3XDzPT9cqFjvEg==,2019-02-22,-34.567999,-58.455896,Belgrano,35.0,36.0,11000.0,Dpto. 2 Amb. Muy bien Ubicado. Apto Prof. Belgrano,Departamento,Alquiler
A5y9j5VIfF52Ww4BSwMA7w==,2019-02-01,-34.5974815,-58.4202346,Palermo,41.0,37.0,13800.0,"MONOAMBIENTE  DE 40,60 m2 A ESTRENAR CFTE. BCON. MEDRANO Y AV. CORDOBA",Departamento,Alquiler
o+VDI7UHbmWe9vXoJt5QHA==,2019-03-02,-34.591100389,-58.4026421873,Barrio Norte,85.0,76.0,28000.0,HERMOSO SEMIPISO 4 AMBIENTES CON ESPACIO GUARDACOCHE Y BAULERA APTO PROFESIONAL,Departamento,Alquiler
Q1YQ4q7QR6DdfHxMY8zw1A==,2019-05-18,-34.5828416,-58.4036057,Palermo,120.0,110.0,40000.0,Billinghurst 2500 - SEMIPISO CON TODAS LAS COMODIDADES,Departamento,Alquiler
ojuXNcmtvLq5cbriBwjYhw==,2019-05-22,-34.606644,-58.443645,Villa Crespo,35.0,35.0,23000.0,Alquiler Local en Cid Campeador Capital Federal ANGEL GALLARDO 957,Local comercial,Alquiler
Cz4t8qwQRdClfpCZzNDc9Q==,2019-03-29,-34.5777457,-58.4310853,Palermo,70.0,70.0,18000.0,Alquiler. Dpto 3 ambientes. Charcas y Bonpland. Garantia Negociable.,Departamento,Alquiler
yEABLN1ImWwIy/Mybwl0cw==,2019-03-23,-34.5970150531,-58.4136967559,Palermo,42.0,38.0,16000.0,Departamento de 2 ambientes en Alquiler en Palermo,Departamento,Alquiler
aL/18UIzBASSXeB0Ocv5wQ==,2019-02-06,-34.6385239,-58.45367,Flores,85.0,85.0,25000.0,LOCAL EN EQUINA CON AMPLIA VIDRIERA,Local comercial,Alquiler
qTJDbBeI75PLVusQ/E/mSA==,2019-02-28,-34.607838,-58.447345,Caballito,67.0,67.0,17500.0,2 AMBIENTES EN DUPLEX CON PATIO,Departamento,Alquiler
ts+7cxm1u9anKK6b9ni81Q==,2019-03-03,-34.556019,-58.457533,Belgrano,67.0,65.0,22000.0,Venta excelente departamento 4 ambientes Belgrano,Departamento,Alquiler
YP35cNr1I17uJFrOcmZ0Mw==,2019-01-13,-34.5824571332,-58.4316148759,Palermo,55.0,50.0,28000.0,$ 28.000 - 2 amb  y cochera - Palermo - Humboldt 2000,Departamento,Alquiler
umnYJT63Fu5BxJQXbuDcQg==,2019-04-30,-34.5867901434,-58.4070195525,Recoleta,65.0,60.0,20000.0,HERMOSO 3 AMB CFTE CON BALCÓN A EXCELENTE PULMÓN VERDE,Departamento,Alquiler
cJR4LgmMpsS26DpBjYHVpQ==,2019-01-08,-34.593792,-58.388602,Recoleta,128.0,128.0,35000.0,Vista a la plaza Vicente López,Departamento,Alquiler
dLToo8p1YQqFAtP9jF7xoQ==,2019-06-02,-34.6366415,-58.4590567,Flores,75.0,57.0,18000.0,CASA EN ALQUILER,Casa,Alquiler
emmuwQ2tfJvDFgNKY8TsRg==,2019-01-03,-34.61549759,-58.43605423,Caballito,70.0,65.0,20000.0,Araoz Alfaro  300 6°  - $ 20.000 - Departamento Alquiler,Departamento,Alquiler
D7NBDfWQ4l3ihNn4JLnT3w==,2019-01-08,-34.582282045,-58.4426581271,Palermo,36.0,36.0,10000.0,Venta o alquiler: oficina en edificio corporativo,Oficina,Alquiler
P3uN/sB+Meo5c14CRIylcQ==,2019-02-22,-34.593651,-58.407356,Barrio Norte,32.0,32.0,11500.0,Alquiler Departamento en Barrio Norte Capital Federal Charcas 2900,Departamento,Alquiler
sKfml+L9jk5ssWAHrlIbxg==,2019-05-09,-34.647106,-58.4589275,Flores,135.0,135.0,20000.0,Excelente Inmuble en alquiler,Otro,Alquiler
qbSfcv5WR6Jgqlj5Slpncg==,2019-02-06,-34.5668194907,-58.4540640545,Belgrano,42.0,39.0,13000.0,Departamento - Belgrano,Departamento,Alquiler
IcBRrIMFYC+/fyW+cWVISA==,2019-04-10,-34.5968536177,-58.4280172879,Palermo,145.0,145.0,39000.0,Gran oficina en alquiler en el barrio de Palermo (sin expensas),Oficina,Alquiler
q3HTPYqSsvJBlL1lqP8lpQ==,2019-06-04,-34.6010365,-58.4292578,Almagro,30.0,30.0,10000.0,Local de 1 ambiente en Alquiler en Almagro,Local comercial,Alquiler
f/ty0ojqilASUo2QLNnl0g==,2019-02-13,-34.5944768095,-58.3854970846,Recoleta,72.0,64.0,15500.0,Arenales al 1200 - Recoleta // Alquiler: 2 Ambientes con Balcon,Departamento,Alquiler
3hSjv+jmL/zYDQT437lcCw==,2019-05-30,-34.5834358,-58.4137176,Palermo,50.0,47.0,25000.0,DEPARTAMENTO 2 AMBIENTES AMOBLADO CON AMENITIES JUNCAL Y SCALABRINI ORTIZ,Departamento,Alquiler
jteo+67gSeyKwbyKxmW1lg==,2019-01-10,-34.5725371,-58.4427854,Belgrano,64.0,61.0,16000.0,Departamento - Colegiales,Departamento,Alquiler
YNIZcB5wUllgbSKab6NdWw==,2019-06-12,-34.5983581,-58.4348104,Villa Crespo,53.0,45.0,14000.0,Amplio 2 Amb con Balcón en Excelente Estado!,Departamento,Alquiler
MducqjFbWRYrpqwAw+KCyg==,2019-01-10,-34.5673861,-58.4451817,Belgrano,81.0,75.0,20000.0,Alquiler 3 ambientes en Belgrano,Departamento,Alquiler
B5Gg365HxJbzLpNF4hSVyw==,2019-06-15,-34.5599185,-58.445713,Belgrano,110.0,80.0,20000.0,"Consultorio, estudio, oficina. 4 habitaciones",Departamento,Alquiler
0k6jbDby2Y0HvJEeQUWLRg==,2019-01-17,-34.603699,-58.381599,Barrio Norte,60.0,55.0,14000.0,Alquiler Departamento en Barrio Norte Capital Federal URIARTE 2267,Departamento,Alquiler
a0FTdU5tXqRjmCMA8G56Eg==,2019-02-25,-34.599175,-58.43254,Villa Crespo,42.0,38.0,12500.0,MONOAMBIENTE SUPER LUMINOSO CON BALCÓN,Departamento,Alquiler
CbT/iePVjxjo/AuFSnqX/g==,2019-01-24,-34.6180322,-58.3914628,Recoleta,100.0,100.0,25000.0,Departmento Apto Profesional en alquiler,Departamento,Alquiler
j3DUdLFKRIjKcdkX1guffw==,2019-05-22,-34.5983621,-58.396506,Recoleta,46.0,46.0,16550.0,Oficina - Recoleta,Departamento,Alquiler
IccTtxBS6Tfj0QvJdKQRJQ==,2019-03-29,-34.5878803,-58.3877109,Recoleta,100.0,100.0,32000.0,$32.000 más Gastos - Oficina 100 m2 - Recoleta - Callao 1900 (LuG),Oficina,Alquiler
hwPBIWDCTSvGH+X+TaxIaA==,2019-01-05,-34.5754242088,-58.4396542075,Belgrano,51.0,42.0,15000.0,Gran Oportunidad de departamento c/cochera fija!!!,Departamento,Alquiler
CpL3OVW6qCrtlkwv70RmNw==,2019-04-27,-34.579491,-58.4755996,Villa Urquiza,60.0,52.0,19000.0,Alquiler - 2 ambientes - A estrenar - Amenities - Villa Urquiza,Departamento,Alquiler
ngcSRQvxC0dLSwVk/vdMyQ==,2019-04-30,-34.5917754,-58.3940998,Barrio Norte,37.0,37.0,13500.0,2 AMBIENTES LUMINOSO EN Barrio Norte CONTRAFRENTE,Departamento,Alquiler
0pHvRazmthJqwZXJ8IaqDw==,2019-01-04,-34.5434803,-58.4615759,Nuñez,41.0,39.0,13000.0,Excelente Alquiler - 2amb - Nuñez,Departamento,Alquiler
9F7nkqGloaT/o0ARIdZaDQ==,2019-05-31,-34.5931791,-58.4004029,Recoleta,35.0,35.0,17200.0,COQUETO DPTO. 2 AMBIENTES EN ALQUILER,Departamento,Alquiler
FQMCcU7Yj+9Bsi2/l8LhHQ==,2019-04-29,-34.5711496,-58.4232966,Palermo,76.0,70.0,32000.0,ALQUILER OFICINA - ESPLENDIDA PLANTA DE 70 Metros - Fitz Roy 1988 - Piso 4 - Palermo Hollywood - Capital Federal,Oficina,Alquiler
WJxFgMDehFQD+sPb1/PnDg==,2019-02-14,-34.5907627,-58.3869801,Recoleta,123.0,115.0,32000.0,DEPARTAMENTO EN ALQUILER,Departamento,Alquiler
wZ+J+9GfukT3wWAZN91vsg==,2019-04-27,-34.5420536,-58.4724947,Nuñez,48.0,45.0,17000.0,Arias 2300 - Nuñez - Luminoso Dpto de 2 amb Excelente Estado,Departamento,Alquiler
RXJo0wVz9TmhrK01PBXxlg==,2019-05-31,-34.5919908,-58.3914727,Recoleta,65.0,65.0,25000.0,Departamento en alquiler en Recoleta,Departamento,Alquiler
JEJg+Sn/I/Y4Ami+Z4/v3g==,2019-01-28,-34.5620844,-58.4566864,Belgrano,40.0,40.0,14000.0,Departamento Belgrano Dos ambientes,Departamento,Alquiler
U+Lfe0q0XvXbCZtdFzd5EA==,2019-04-13,-34.565068,-58.440763,Belgrano,38.0,38.0,13000.0,Departamento 2 amb Luis M. Campos y Lacroze,Departamento,Alquiler
4f4yzYRkh1hrQ/szKJQZ1w==,2019-04-25,-34.56838989,-58.44435883,Belgrano,72.0,48.0,28000.0,3 De Febrero  1100 6°  - $ 28.000 - Departamento Alquiler,Departamento,Alquiler
PXJ7xiGjT2d02dc+b9WqLg==,2019-04-04,-34.599475,-58.439227,Villa Crespo,38.0,38.0,13000.0,Muy lindo dos ambientes en Villa Crespo,Departamento,Alquiler
z15t9dRtjqPDbK9jjvdosQ==,2019-04-17,-34.553921,-58.449835,Belgrano,51.0,48.0,25000.0,Depto 2 amb. a estrenar Belgrano. ALQUILER,Departamento,Alquiler
oYwBjknoD1PCyxfyJdK1LQ==,2019-03-19,,,Belgrano,63.0,57.0,19000.0,Departamento de 3 ambientes en alquiler en Belgrano con amoblamiento opcional.,Departamento,Alquiler
Cn9Na6JDJc66u62Eg7SGLw==,2019-01-10,-34.586505,-58.4181344,Palermo,30.0,30.0,10000.0,Alquiler 2 ambientes en Palermo,Departamento,Alquiler
zBjSfRd6KOiiaOKESgfqcg==,2019-06-11,-34.58057404,-58.49095154,Villa Urquiza,65.0,58.0,17000.0,Ceretti  2100 5°  - $ 17.000 - Departamento Alquiler,Departamento,Alquiler
AgL9H5KBJRIFz+Yq3Q/k8A==,2019-04-11,-34.5914838133,-58.416623264,Palermo,38.0,38.0,14500.0,Alquiler 1 dorm. PALERMO. Reciclado nuevo. Muy luminoso.,Departamento,Alquiler
OBoXjE3wY5QzX+oJMYVO0Q==,2019-01-13,-34.5971816,-58.4342012,Palermo,47.0,47.0,30000.0,Local de 1 ambiente en Alquiler en Palermo,Local comercial,Alquiler
eVlfj9e29fS9a1ttpvhP1w==,2019-06-24,-34.5755128,-58.4399475,Belgrano,49.0,44.0,14250.0,DEPARTAMENTO EN ALQUILER,Departamento,Alquiler
m3eHtadUePZr5MDMVjCcHg==,2019-06-26,-34.5837292,-58.4339752,Palermo,32.0,26.0,14000.0,Departamento - Palermo Hollywood,Departamento,Alquiler
CRECQY6H0beFDxdRfBsY0A==,2019-02-05,-34.6226999067,-58.4439389455,Caballito,68.0,68.0,35000.0,Local - Caballito,Local comercial,Alquiler
oU+QIN2Q4XqfRStw6Wh7bg==,2019-02-12,-34.5775888,-58.4979491,Villa Urquiza,44.0,44.0,9000.0,DEPARTAMENTO EN ALQUILER,Departamento,Alquiler
amzW7v5tEY+r5tP0di0Qug==,2019-01-13,-34.5477947,-58.4702773,Nuñez,35.0,35.0,11500.0,CIUDAD DE LA PAZ 3700. ALQUILER. 1 AMB.,Departamento,Alquiler
q/ZNJ7Og+VaCs4G4x/sFXw==,2019-01-24,-34.5984315,-58.4148863,Almagro,80.0,40.0,17500.0,Departamento de 1 ambiente en Alquiler en Almagro,Departamento,Alquiler
jyAPgbbg3qMuMvRq30DWuA==,2019-04-13,-34.590969,-58.393099,Barrio Norte,38.0,35.0,11500.0,Alquiler Monoambiente Muy Luminoso c/ Balcón BN,Departamento,Alquiler
KCkANRIevsyt95wM3hbTEg==,2019-04-09,-34.5897205,-58.3961034,Recoleta,45.0,42.0,14000.0,Monoambiente Moderno con A/C balcon frente y baulera subsuelo. Pileta y Parilla 2C Recoleta Mall,Departamento,Alquiler
9ya4wRCLJ3ING78Vct0d5A==,2019-03-14,-34.5773582,-58.407118,Palermo,42.0,42.0,20000.0,Lafinur 3200/Departamento 2 ambientes Amoblado en alquiler,Departamento,Alquiler
HmW85xq6iEOa9rqdUgesvQ==,2019-01-12,-34.55115891,-58.46618271,Nuñez,40.0,40.0,18000.0,M Pedraza  2400 - $ 18.000 - Local Alquiler,Local comercial,Alquiler
Bsad1F/o7dCH+NceBqDLRQ==,2019-06-05,-34.626911,-58.443788,Caballito,36.0,36.0,10000.0,Departamento de 2 ambientes. 1° Piso por escalera. - Caballito,Departamento,Alquiler
2+KueH6mxYCHn5qDvWC0gg==,2019-01-04,-34.600764,-58.422264,Almagro,44.0,44.0,11000.0,LINDISIMO AMBIENTE UNICO - APTO PROFESIONAL,Departamento,Alquiler
ptZJsEpo/aORvZPwwddg7w==,2019-05-18,-34.58000183,-58.47582626,Villa Urquiza,33.0,33.0,22000.0,Triunvirato  3900 - $ 22.000 - Local Alquiler,Local comercial,Alquiler
a0HItQZCxZpLrF3OP3QAgA==,2019-03-11,-34.6082979,-58.4464468,Caballito,40.0,37.0,10500.0,Departamento de 2 ambientes en alquiler en Caballito,Departamento,Alquiler
NyhSq9H7GsFaphGFE3SvFg==,2019-04-27,-34.6086512477,-58.4273519389,Almagro,36.0,33.0,13000.0,DEPARTAMENTO EN ALQUILER,Departamento,Alquiler
7DTE+leV/g7lvJpl4SgCHw==,2019-05-16,-34.5635617371,-58.4663240418,Belgrano,43.0,40.0,14800.0,ALEGRE 2 AMB CON BALCÓN EN BELGRANO,Departamento,Alquiler
g1jGpsjjZVj0vTCjaIntBA==,2019-04-14,-34.5912417048,-58.4025563567,Recoleta,85.0,76.0,28000.0,HERMOSO SEMIPISO 4 AMBIENTES CON ESPACIO GUARDACOCHE Y BAULERA APTO PROFESIONAL,Departamento,Alquiler
kEVWuJtCUWJB8UqPXUUS6A==,2019-03-07,-34.5816978,-58.4076843,Palermo,48.0,42.0,15000.0,1 AMBIENTE AMPLIO BALCON COCINA COMEDOR SUM PARRILLA PISCINA SOLARIUM EN ALQUILER EN PALERMO B NORTE,Departamento,Alquiler
owYvqxmY8tqXbDApcAvJIA==,2019-04-04,-34.60537,-58.37932,Almagro,45.0,45.0,14000.0,Departamento de 3 ambientes en Alquiler en Almagro,Departamento,Alquiler
cEyBuO6xpdzimwqH+Os33g==,2019-03-20,-34.5774560185,-58.4325740466,Palermo,43.0,39.0,18000.0,Carranza 2300 - Duplex 2 ambientes - Palermo,Casa,Alquiler
AErU8xsGVyFLO/U2xaw4Ow==,2019-01-19,-34.5943246,-58.3857832,Recoleta,45.0,45.0,18000.0,"Amplio dos ambientes tipo Loft amueblado, luminoso en plena Recoleta",Departamento,Alquiler
eFjPpCaPPxN0v1qM/wO22w==,2019-05-19,-34.573558,-58.473959,Villa Urquiza,85.0,72.0,28000.0,Alquiler 3 ambientes con amenities,Departamento,Alquiler
7agrG5Gst21uVPM5SzIR0g==,2019-05-04,-34.571371,-58.4321203,Palermo,46.0,40.0,14000.0,Departamento en alquiler en Las Cañitas,Departamento,Alquiler
SbBVZ9I03qYEhtuGdjSkBw==,2019-01-23,-34.6119982,-58.4422719,Caballito,60.0,60.0,25500.0,Excelente dpto de 3 amb en alquiler temporario en Caballito,Departamento,Alquiler
F1qdo/u5j0y+L4v4D+xvcQ==,2019-03-24,-34.56123,-58.4623203,Belgrano,78.0,78.0,35000.0,Departamento - Belgrano 4 amb. (Amoblado),Departamento,Alquiler
4Aczqa4CWpRCpkh8CcpR+w==,2019-06-15,,,Belgrano,40.0,40.0,12000.0,DEPARTAMENTO 2 AMBIENTES EN EXCELENTE UBICACION EN ALQUILER - BELGRANO,Departamento,Alquiler
D4VGlZdXQroLjJpHBg+7iw==,2019-01-10,-34.552129,-58.46838,Nuñez,44.0,44.0,18000.0,ALQUILER 1 AMB COCHERA ESTRENAR AMENITIES NUÑEZ,Departamento,Alquiler
Q2CiKOcqnIYb+NyDbxV5TQ==,2019-01-02,-34.586651,-58.410538,Palermo,65.0,60.0,24000.0,Alquiler Departamento en Palermo Capital Federal Beruti 3400,Departamento,Alquiler
KovfQwe5pcP2i83NxW3VvA==,2019-03-29,-34.5724228112,-58.4475434321,Belgrano,72.0,66.0,24500.0,DEPARTAMENTO EN ALQUILER,Departamento,Alquiler
L4L3NKwo+ORPYEaF2S2bog==,2019-03-26,-34.55198288,-58.45052719,Nuñez,28.0,28.0,13900.0,Quinteros  1400 1°  - $ 13.900 - Departamento Alquiler,Departamento,Alquiler
naD10cRMompRGGkYB5HtCA==,2019-05-15,-34.615935,-58.419067,Almagro,39.0,37.0,12000.0,Alquiler mono-ambiente amplio con BALCÓN y COCHERA,Departamento,Alquiler
tCMKgPPmW84eTutNK68Hvg==,2019-04-04,-34.5711396,-58.4306897,Palermo,100.0,80.0,36000.0,Departamento - Las Cañitas,Departamento,Alquiler
/5+RaZ29XJN/rw7luXo9fQ==,2019-04-30,-34.5773582,-58.407118,Palermo,42.0,42.0,20000.0,Lafinur 3200/Departamento 2 ambientes Amoblado en alquiler,Departamento,Alquiler
e401xVAU4QJR1BuHYsZU7A==,2019-06-26,,,Belgrano,44.0,40.0,13900.0,Departamento - Belgrano,Departamento,Alquiler
y9IYoVq39qhoTW0nP+yHsw==,2019-03-21,,,Barrio Norte,58.0,48.0,32000.0,Departamento 2 ambientes - Amoblado y Equipado -,Departamento,Alquiler
/M+TfRGybS3s4wk26VI6kA==,2019-05-08,-34.5985271489,-58.4132026931,Almagro,40.0,37.0,14000.0,Departamento de 2 ambientes en Alquiler en Almagro,Departamento,Alquiler
K9uIgZ1CundC4xik3G2iHQ==,2019-05-08,-34.5637162,-58.4876966,Villa Urquiza,55.0,47.0,14000.0,Departamento 2 Ambientes,Departamento,Alquiler
uUb3OVNGAwtGkZ9dQg8fAw==,2019-03-14,-34.6253285,-58.4516589,Caballito,44.0,37.0,12000.0,DEPARTAMENTO EN ALQUILER,Departamento,Alquiler
XJQQZ8GW8kOrojdcKkiGwg==,2019-04-16,-34.5545158,-58.460431,Belgrano,40.0,40.0,14000.0,2 amb a la calle con balcn edificio moderno,Departamento,Alquiler
q6bqhpQKtuhU2Q/DZf2rMw==,2019-06-10,-34.5758171,-58.4209959,Palermo,68.0,65.0,40000.0,Departamento - Palermo Nuevo,Departamento,Alquiler
2iZUrLY4IhXNAiS4uSkEfA==,2019-02-26,-34.5592277,-58.4518606,Belgrano,32.0,32.0,10000.0,2 ambientes en Belgrano,Departamento,Alquiler
j+LXfYiynvyySrw7jHAzqA==,2019-06-17,-34.57149887,-58.48567581,Villa Urquiza,95.0,70.0,26000.0,Pacheco   2600 - $ 26.000 - Departamento Alquiler,Departamento,Alquiler
/th+5GUSZY5B43/+IGz7jQ==,2019-02-24,-34.5957447,-58.4097622,Barrio Norte,53.0,51.0,21000.0,Aguero 1200 :: En Alquiler Hermoso departamento 3 ambientes con cochera Fija y baulera,Departamento,Alquiler
0KPKgqpgxJ5gEP/zQJxOkQ==,2019-04-13,,,Palermo,90.0,90.0,28000.0,Departamento bien ubicado en alquiler 4 ambientes en Palermo,Departamento,Alquiler
xbL7e/z82uoDk37tKLbkwQ==,2019-01-19,-34.5502929,-58.4707788,Nuñez,46.0,42.0,14000.0,alquiler departamentos 2 ambientes semi-amoblado con balcón en Nüñez,Departamento,Alquiler
7hQ3AyH7YV/YogsF3LTy3w==,2019-05-10,,,Barrio Norte,35.0,31.0,17000.0,DEPARTAMENTO EN ALQUILER,Departamento,Alquiler
4RrqsH3O1CCxYZ5fCyUvVg==,2019-02-14,-34.5555126,-58.440549,Belgrano,44.0,42.0,14700.0,Husares y Sucre de 2 amb c/cochera fija en el edificio y portones automaticos.,Departamento,Alquiler
Y5pdaXzMqc16FgG+2SgR6Q==,2019-03-13,-34.5944431704,-58.4285847482,Palermo,60.0,50.0,17000.0,ALQUILER PH - Palermo Soho PB con PATIO sin EXPENSAS $17.000.-,PH,Alquiler
wmg/KFHj0iKUG+YZ98TsiA==,2019-05-22,-34.561011,-58.462148,Belgrano,40.0,37.0,11000.0,BLANCO ENCALADA al 2700,Departamento,Alquiler
qQ518DMDOFRKY/ENEXQZcg==,2019-02-28,-34.585309,-58.406429,Recoleta,103.0,70.0,25000.0,Duplex con balcón y Terraza 2 dormitorios,Departamento,Alquiler
C8GT81GESQMzcrLengo0Dw==,2019-01-10,-34.5860501,-58.4151457,Palermo,70.0,70.0,40000.0,Local excelente  ubicación Araoz a metros Av. Sta Fe - Palermo,Local comercial,Alquiler
p8iPZcM6mbkA3MAlTQhmew==,2019-05-19,-34.620224,-58.42409515,Almagro,65.0,61.0,19000.0,Treinta Y Tres Orientales  500 1°  - $ 19.000 - Departamento Alquiler,Departamento,Alquiler
NY9TOtAY1a7OZ/gI4JLQWg==,2019-05-07,-34.5904352,-58.3867131,Recoleta,143.0,130.0,35000.0,Departamento - Recoleta,Departamento,Alquiler
wfcue9GNijexgb2LM3oFKg==,2019-05-31,-34.5814108,-58.4088481,Barrio Norte,42.0,38.0,15000.0,"DEPARTAMENTO EN ALQUILER MONOAMBIENTE , PALERMO",Departamento,Alquiler
rx3NQxegoqRgUp2eLv0eYA==,2019-01-28,-34.6244427,-58.4446768,Caballito,40.0,40.0,12500.0,Alquiler 2 ambientes Caballito,Departamento,Alquiler
zr/hMaLoJOwLinutMw5fCA==,2019-05-09,-34.60807,-58.451173,Caballito,44.0,41.0,14000.0,Alq 2 AMB C/ BALCON SOL en CABALLITO,Departamento,Alquiler
mAElnywfjqzFqz8eD/QozQ==,2019-06-15,-34.6289146,-58.4372248,Caballito,43.0,40.0,18500.0,DEPARTAMENTO 2 AMBIENTES SEMIPISO AL FRENTE CON BALCON Y COCHERA,Departamento,Alquiler
SZ1knyGJajG+iHwqY1Evzw==,2019-01-03,-34.5823763,-58.4227823,Palermo,45.0,41.0,16000.0,DEPARTAMENTO EN ALQUILER,Departamento,Alquiler
6cJ8hMMmaDPud84Avy29dg==,2019-04-29,-34.6303026,-58.4667639,Flores,58.0,58.0,14000.0,Culpina y Rivadavia - 3 ambientes - Luminoso - Reciclado,Departamento,Alquiler
1iRvr/mg6aC0fcBYQMPiNQ==,2019-02-22,-34.5979597,-58.4096278,Barrio Norte,42.0,42.0,12000.0,DEPARTAMENTO EN ALQUILER,Departamento,Alquiler
EqWa7iWF2VKHuxK1GwQwPQ==,2019-03-14,-34.5980697,-58.4446858,Villa Crespo,33.0,33.0,10800.0,MONOAMBIENTE A ESTRENAR CON BALCON EN VILLA CRESPO,Departamento,Alquiler
9PIaHoFuXm7R2L1cwiZH8w==,2019-01-29,-34.5620844,-58.4566864,Belgrano,74.0,70.0,22000.0,Av. Luis Maria Campos 144. Belgrano. 3 ambientes. Balcón terraza y parrilla,Departamento,Alquiler
5fw5JD9X58/DCliFNuobaw==,2019-02-13,-34.5957447,-58.4097622,Barrio Norte,53.0,51.0,21000.0,Aguero 1200 :: En Alquiler Hermoso departamento 3 ambientes con cochera Fija y baulera,Departamento,Alquiler
iA9PSAtrgeSkdTSzvLsRTQ==,2019-05-10,-34.5800207,-58.4325779,Palermo,40.0,40.0,20000.0,Departamento - Palermo,Departamento,Alquiler
b77Zo7FdyQNn6Qu5swqltA==,2019-03-24,-34.591955,-58.385294,Recoleta,127.0,120.0,38000.0,Recoleta 3 Amb cochera baulera Alquiler,Departamento,Alquiler
piyGhe8xmYV21K0XXCUqog==,2019-01-29,-34.6090203,-58.4292389,Almagro,75.0,75.0,30000.0,LOCAL EN ALQUILER,Local comercial,Alquiler
/cosYrKAE+L5fdBHgEzBlg==,2019-06-01,-34.572978,-58.439775,Belgrano,75.0,65.0,22000.0,"Departamento 3 amb. lavadero, balcón y cochera",Departamento,Alquiler
tS0f/70nX7Ucezz7/J9FOg==,2019-06-22,-34.6051206129,-58.3911177408,Almagro,53.0,44.0,17000.0,Departamento de 2 ambientes en Alquiler en Almagro,Departamento,Alquiler
9cdfB9uytgsYUn0HXMLNFQ==,2019-06-25,-34.566481,-58.4512913,Belgrano,41.0,34.0,14500.0,Departamento - Belgrano,Departamento,Alquiler
oYpMokBEg+Z8tEyOlef0wA==,2019-02-22,-34.5734798556,-58.4738171418,Villa Urquiza,40.0,40.0,13500.0,2 AMBIENTE AMPLIO - FRENTE - MUY LUMINOSO - SUM - PISCINA,Departamento,Alquiler
zVaPm2UusRQd0E+37zDI5A==,2019-01-25,-34.586684151,-58.4133281081,Barrio Norte,80.0,80.0,23000.0,Alquiler. Departamento 4 ambientes. Cochera. Balcón. Garantía. Santa Fe y Julián Álvarez,Departamento,Alquiler
RTOmENfwMOJjrlvutPJdEg==,2019-05-10,-34.6246359395,-58.4432517963,Caballito,96.0,90.0,34000.0,Alquiler impecable 4 ambientes con cochera,Departamento,Alquiler
gKb4knk7ywdw4QMTisEvzw==,2019-03-07,,,Palermo,30.0,27.0,13000.0,Mario Bravo  900 C - $ 13.000 - Departamento Alquiler,Departamento,Alquiler
6kki1OIIFQa4s+QrYmlODg==,2019-02-15,-34.58966,-58.390371,Recoleta,95.0,92.0,23000.0,Alquiler 3 ambientes con dependencia en Recoleta,Departamento,Alquiler
zkLRFKqO75acxjYCl8M7jA==,2019-04-03,-34.5856985262,-58.4253489374,Palermo,50.0,47.0,19500.0,"Departamento 50m² 1 ambiente en GUATEMALA 4800, Palermo, Palermo Soho, por $ 19.500",Departamento,Alquiler
4DmkSxbZwgJMCEWlJMJ4Jw==,2019-01-20,-34.63395,-58.4627529,Flores,31.0,29.0,9500.0,2 ambientes muy luminoso balcón bajas expensas,Departamento,Alquiler
jNdeDvGisFBdCeeH0uJr+A==,2019-04-10,-34.5881292,-58.3862807,Recoleta,85.0,77.0,30000.0,Muy lindo semipiso en Recoleta,Departamento,Alquiler
szULE2jok+0QfRFrk5a50g==,2019-02-23,-34.5993441,-58.4167305523,Palermo,45.0,40.0,14000.0,Hermoso Monoambiente  con Piscina y Quincho amoblado,Departamento,Alquiler
nAdfUJgiGBFoSyqxJw4Dpg==,2019-04-01,-34.602367,-58.41717,Almagro,48.0,44.0,24000.0,ALQUILER 2 AMB AMOBLADO BALCÓN COCHERA EN ALMAGRO,Departamento,Alquiler
U0eJKouKbU/uyikXIQZLNA==,2019-02-06,-34.5679517,-58.4650545,Belgrano,119.0,93.0,35000.0,"Semipiso de 3 dormitorios con dep. cochera fija, y balcón terraza en alquiler en  Belgrano",Departamento,Alquiler
Du1ULIUvF3wrzGo981nI+w==,2019-01-17,-34.6022056319,-58.4456783445,Villa Crespo,48.0,40.0,11000.0,DEPARTAMENTO EN ALQUILER,Departamento,Alquiler
FnUBrxGGAuz7VngH5ebwTw==,2019-05-22,-34.6013706666,-58.4366318358,Villa Crespo,53.0,50.0,17000.0,Departamento de 2 ambientes en Alquiler en Villa crespo,Departamento,Alquiler
d60+KtBZ5+ItYnxMS8lltQ==,2019-03-20,-34.5800439,-58.4873018,Villa Urquiza,45.0,45.0,11000.0,DEPARTAMENTO EN ALQUILER,Departamento,Alquiler
gdDswMLKIjul3Jrv8pDhaw==,2019-03-21,-34.6205875,-58.4727374,Flores,120.0,120.0,25000.0,Local - Flores,Local comercial,Alquiler
b04FweP/KdYbZsQuUFw1aw==,2019-03-03,-34.57701,-58.485628,Villa Urquiza,45.0,45.0,12000.0,ALQUILER 2 AMBIENTES CON BALCÓN EN VILLA URQUIZA,Departamento,Alquiler
KojLHgNlOBDW/ojPC4irOQ==,2019-05-02,-34.5692409,-58.4349379,Palermo,55.0,55.0,15000.0,Alquiler departamento de 2 ambientes,Departamento,Alquiler
1ujgsB4AnuiEKBI0hRqtnQ==,2019-03-24,-34.595414,-58.395496,Recoleta,46.0,46.0,17000.0,"ALQUILER 3 AMBIENTES, APTO PROFESIONAL EN RECOLETA",Departamento,Alquiler
xFxKFDv8axyNUsMH88SvMA==,2019-01-08,-34.5675141,-58.4344918,Belgrano,35.0,32.0,12000.0,LAS CAÑITAS I Soldado de la Independencia al 700. Monoambiente.,Departamento,Alquiler
R+8B1wUs77AbKtXhqsVPQA==,2019-02-06,-34.584929,-58.4130474,Palermo,100.0,100.0,24000.0,DEPARTAMENTO EN ALQUILER,Departamento,Alquiler
n4tGq2GS4n80SoLEeaJCtQ==,2019-05-16,-34.6159245,-58.4406027,Caballito,51.0,51.0,15000.0,Hermoso 3 Ambientes - Lezica y Yatay,Departamento,Alquiler
Y3+mjzhUC6+nT5SYRIjp7Q==,2019-04-13,-34.5962916155,-58.4269976801,Palermo,110.0,110.0,25000.0,Excelentes oficinas en alquiler en Palermo,Oficina,Alquiler
E1yEFbbhjMB4HdlD7GZpAg==,2019-02-19,-34.5898547,-58.4063161,Barrio Norte,43.0,38.0,18000.0,Departamento en venta Beruti al 3000 - Barrio Norte,Departamento,Alquiler
qrMh8faXD2IM/7gqecNfPw==,2019-04-25,-34.6104989,-58.4418878,Caballito,50.0,44.0,16000.0,HERMOSO DEPARTAMENTO 2 AMBIENTES EN ALQUILER - CABALLITO,Departamento,Alquiler
kfukwluNbnvPOmcXCd5Wdg==,2019-06-21,-34.5683026,-58.4309411,Palermo,72.0,69.0,25000.0,Loft al frente de 1 dormitorio y escritorio con cochera fija en alquiler en Las Cañitas.,Departamento,Alquiler
t5GTSA4Qg0xH3qrKPYbINQ==,2019-06-24,-34.589272,-58.4140644,Palermo,33.0,31.0,15000.0,ALQUIER EXCELENTE UBICACION. VIDT Y BOULEVAR CHARCAS A PASOS DE PLAZA GUADALUPE,Departamento,Alquiler
V2V+HJCSlxlhh0zrq8rFRQ==,2019-04-16,-34.5680418462,-58.4555543114,Belgrano,38.0,35.0,14900.0,DEPARTAMENTO EN ALQUILER,Departamento,Alquiler
oe3TO/GM7DbFNZpX+/ZE5A==,2019-03-04,,,Palermo,33.0,30.0,18900.0,Excelente Dpto 1 amb Apto Profesional FULL AMENITIES!,Departamento,Alquiler
y68SMZZ07cA3YJvc3C1K6Q==,2019-04-12,,,Palermo,48.0,45.0,19000.0,Alquiler Dpto 2 ambientes con Cochera - Seguro de caución,Departamento,Alquiler
THSyu631+YSQZsj7XGs+Zw==,2019-04-13,-34.5827069517,-58.4486236993,Palermo,68.0,68.0,23000.0,Alquiler: 68 m2 · cochera y baulera · Oficinas premium · Seguridad 24 horas,Oficina,Alquiler
hoycewFwPSu17yKGCzb2Fg==,2018-12-29,-34.567646,-58.447906,Belgrano,65.0,65.0,20000.0,ALQUILER MUY LINDO Y COMODO 3 AMB,Departamento,Alquiler
R0M5gEp1QsiDdB3iGEaQvA==,2019-06-24,-34.5699769,-58.4761567,Villa Urquiza,42.0,38.0,15000.0,ALQUILER DEPARTAMENTO AMBIENTE DIVISIBLE MUY LUMINOSO CON COCHERA FIJA FULL AMENITIES EN VILLA UQUIZA,Departamento,Alquiler
eMB7RaiGRm5aIrNqVgv7GA==,2019-03-22,-34.56493378,-58.43890762,Belgrano,45.0,40.0,18000.0,Soldado De La Independencia   1100 3°  - $ 18.000 - Departamento Alquiler,Departamento,Alquiler
PoIRI5Cy0M7OGX6yrtNt9A==,2019-06-21,-34.5845106,-58.4129489,Barrio Norte,45.0,45.0,23000.0,Aráoz al 2700,Departamento,Alquiler
mp09asmXR8I7DWxghdMsVA==,2019-01-25,-34.558875,-58.446319,Belgrano,59.0,50.0,28000.0,HERMOSO DEPARTAMENTO en Alquiler - 2AMB con COCHERA FIJA - Libertador y Sucre - BELGRANO - EDIFICIO LIBERATEUR,Departamento,Alquiler
Y+VQ801g2gjVlSexM9TKmw==,2019-06-20,-34.5958138,-58.4308208,Villa Crespo,68.0,68.0,23000.0,Departamento - Villa Crespo,Departamento,Alquiler
JCWIW4VMnUeD+WhDscUb5w==,2019-05-14,-34.595306,-58.3962,Recoleta,67.0,67.0,35000.0,LOCAL A MTS DE AV SANTA FE,Local comercial,Alquiler
rw40yu2+/iNxWYsC07HLng==,2019-03-01,-34.5554316,-58.4652142,Nuñez,88.0,84.0,26500.0,VENTA - 3 AMBIENTES - NUÑEZ,Departamento,Alquiler
6mtuHJsyjxH9ystJggPPVA==,2019-03-21,-34.5846779,-58.4191322,Palermo,90.0,70.0,24000.0,Depto de 4 amb. Muy buena distribución. Excelente ubicación. - Palermo,Departamento,Alquiler
U1W1qTIF7Pf7A2oPamStbg==,2019-03-14,-34.5968505142,-58.4157095563,Palermo,42.0,39.0,13500.0,Departamento en alquiler de 2 ambientes con dos balcon,Departamento,Alquiler
5efQmhJ5hJfxuhrWFNUOxw==,2019-02-12,-34.5824031,-58.4788282,Villa Urquiza,50.0,40.0,14900.0,2 AMBIENTES PB FRENTE,Departamento,Alquiler
cSvEVhKRndpynN2QygVGYw==,2019-01-08,-34.5521099726,-58.4587517206,Nuñez,49.0,45.0,18000.0,RESERVADO. Espectacular departamento en Torre de Categoría!,Departamento,Alquiler
bfXQSjF/AQ+zq1v4+Zv5YA==,2019-05-31,-34.58242,-58.4273539,Palermo,150.0,150.0,60000.0,"DUEÑO SIN COMISION 1544739157 Oro y Charcas 6 x 25, 150 m2 A Mts Shopping Arcos Con o Sin Renta de $60.000",Local comercial,Alquiler
lIMwv4RB0RGZdP6tGNGsSw==,2019-05-16,-34.6256661,-58.4479174,Caballito,36.0,33.0,11500.0,Departamento - Caballito,Departamento,Alquiler
8sZtldqWV1KD5HkD32sFPg==,2019-03-08,,,Palermo,35.0,35.0,19500.0,"OPORTUNIDAD!! MONOAMBIENTE  en Quo Swim - Av Dorrego 1900, Palermo Audiovisual - 1 Amb - Muy Luminoso",Departamento,Alquiler
dx4shLuwfACxqREtoWl37Q==,2018-12-30,-34.6013232,-58.4414997,Villa Crespo,155.0,155.0,45000.0,Local de 1 ambiente en Alquiler en Villa crespo,Local comercial,Alquiler
HmatxYtLwVPM6e/f/nx9+g==,2019-02-14,-34.5897342,-58.4232125,Palermo,87.0,87.0,43000.0,LOCAL EN ALQUILER,Local comercial,Alquiler
OJi35WxcAEgzVudb08FoIg==,2019-06-05,-34.620591,-58.4551248,Caballito,49.0,43.0,17000.0,Departamento - Caballito,Departamento,Alquiler
/vp+zajTgc6eYuJ86cyX3g==,2019-03-20,-34.6227552,-58.4319223,Caballito,44.0,40.0,14000.0,Excelente semipiso amoblado - Caballito,Departamento,Alquiler
OatiyaK0c+mRvGoPi4SO0w==,2019-01-23,-34.5590431,-58.4540671,Belgrano,180.0,180.0,45000.0,departamento en alquiler con 3 dormitorios,Departamento,Alquiler
ckh3j1DRnsO15TuTRJA3Uw==,2019-02-14,-34.5992344,-58.4133906,Almagro,70.0,70.0,20000.0,EXCELENTE UBICA- BAJAS EXPENSAS - SEMI AMOBLADO - PATIO TECHADO,PH,Alquiler
We2jr21u3KyiIt7s3hZs4w==,2019-05-21,-34.597022,-58.3856811,Barrio Norte,30.0,30.0,11500.0,monoambiente en Talcahuano al 1000,Departamento,Alquiler
nS/1IO0UVD+vwmVyGO6icA==,2019-02-07,-34.554791,-58.464181,Nuñez,54.0,50.0,16500.0,ALQUILER DEPARTAMENTO 1 AMB. CON COCHERA EN NUÑEZ,Departamento,Alquiler
BLK40EC6iUY6/aYGmxSCiw==,2019-02-08,-34.5696057,-58.4193907,Villa Crespo,140.0,140.0,23000.0,Local de 1 ambiente en Alquiler en Villa crespo,Local comercial,Alquiler
yy0QaBuGDYI6FeA9saBvWA==,2019-05-15,-34.5946685,-58.3872215,Recoleta,75.0,70.0,28000.0,"ARENALES 1400, 5º ESQ. PARANA - RECOLETA",Departamento,Alquiler
A8DpxefV52RqTiKW3RdkOA==,2019-05-04,-34.5878132,-58.4188839,Palermo,65.0,57.0,21000.0,DEPARTAMENTO EN ALQUILER,Departamento,Alquiler
VEjr1ui0skmJG7s2NYbeew==,2019-06-07,-34.5457406,-58.4625916,Nuñez,75.0,69.0,25000.0,3 de Febrero 3600 - Nuñez - PH 3 amb - Sin expensas,PH,Alquiler
1oqZTVuEpuPHK4OsleAQbw==,2019-02-08,-34.564614,-58.457309,Belgrano,86.0,86.0,37500.0,EXCELENTE OFICINA / CONSULTORIOS - BELGRANO 86M2,Oficina,Alquiler
c+bTmRY1+74TySIdrFbE9Q==,2019-03-27,,,Palermo,43.0,43.0,22000.0,2 amb. Amueblado. Sin exigencia Garantia propietaria.,Departamento,Alquiler
D9hgGOZusAsNeaWzPg5R4g==,2019-03-15,-34.5728758,-58.4315815,Palermo,52.0,46.0,20000.0,Semipiso de 2 ambientes en alquiler en Las Cañitas - Con cochera opcional.,Departamento,Alquiler
TQvIAqKU3oeKCUZugMPvhw==,2019-01-19,-34.632583,-58.4666037,Flores,51.0,47.0,11500.0,DEPARTAMENTO EN ALQUILER  2 ambientes. FLORES  51m2,Departamento,Alquiler
flECFtro6aFqy0byxVeHtg==,2019-01-11,-34.5648238362,-58.4393324486,Belgrano,38.0,37.0,10000.0,Alquiler: Hermosa oficina o departamento contrafrente super luminoso!,Departamento,Alquiler
eEkCumBwl+HgWYLrMHn/2A==,2019-05-20,-34.6114447,-58.4209936,Almagro,45.0,45.0,47000.0,Local - Almagro,Local comercial,Alquiler
gnN77Pb9rtMvrWyFPZmcWg==,2019-04-03,-34.554453,-58.451339,Belgrano,32.0,32.0,12000.0,DEPARTAMENTO 2 AMB  EN ALQUILER EN NUÑEZ,Departamento,Alquiler
DGYOtCdSfqc4y5umCwXUBw==,2019-02-14,-34.5694559,-58.4328805,Belgrano,86.0,86.0,55000.0,"Con cochera, vista y los mejores amenities.",Departamento,Alquiler
uYdiQdu6D2v8VdheBNEI8Q==,2019-04-05,-34.5880569,-58.383554,Recoleta,55.0,55.0,20000.0,"AV. DEL LIBERTADOR 700, 4º ESQ. MONTEVIDEO - RECOLETA (APTO PROFESIONAL)",Departamento,Alquiler
10gmhX4tGcZ4qIrZRitzdA==,2019-03-07,-34.5730301,-58.4228373,Palermo,47.0,47.0,16000.0,Alquiler departamento de 2 ambientes,Departamento,Alquiler
QcKUxYQY0rbl3VlXulHKJg==,2019-03-09,-34.5822369,-58.4283578,Palermo,36.0,33.0,11500.0,"Palermo, Ambiente ùnico con mobiliario, frente balcòn,",Departamento,Alquiler
8YV8TRsuV9vZOfUguz9WpA==,2019-03-27,-34.582078,-58.434103,Palermo,130.0,130.0,35000.0,"PH ALQUILER COMERCIAL, LOCAL / OFICINA, PALERMO",Oficina,Alquiler
1GuCZ6ndzUISLOXUMa+cDg==,2019-04-09,-34.6279713,-58.4507162,Caballito,46.0,43.0,18000.0,Departamento - Caballito,Departamento,Alquiler
qnTdFT7ILX1VSguk2DaDJQ==,2019-05-31,,,Barrio Norte,42.0,37.0,12000.0,B.NORTE  PALERMO  2 Amb. con Patio.,Departamento,Alquiler
H3giWChuvyBhxRYDeq2QmQ==,2019-01-29,-34.576653,-58.471836,Villa Urquiza,49.0,40.0,12500.0,Alquiler Departamento en Villa Urquiza Capital Federal VIRREY DEL PINO 4199,Departamento,Alquiler
6A9agTD+N2jx+GwmFhvQRQ==,2019-01-30,-34.5722847592,-58.4739594735,Villa Urquiza,70.0,70.0,25000.0,Alquiler 2 ambientes con amenities,Departamento,Alquiler
rHZv9ZR39jVh1eCYya1vPg==,2019-06-10,-34.603994900000004,-58.4297037,Almagro,114.0,114.0,46000.0,Amplio local desarrollado en PB apto todo rubro a metros Pque Centenario,Local comercial,Alquiler
grLKPJcFXIfFdthh9w5Y3A==,2019-02-20,-34.5539232,-58.4497612,Belgrano,45.0,36.0,25000.0,Departamento - Belgrano,Departamento,Alquiler
enOUzQxMAfbHGi+EzeCdig==,2019-01-25,-34.6254653,-58.4403884,Caballito,57.0,55.0,17500.0,3 AMBIENTES A ESTRENAR CON VISTA ABIERTA EN CABALLITO,Departamento,Alquiler
ARKIl+yf2qmOvBGjZrL1dg==,2019-06-10,-34.585832,-58.401213,Barrio Norte,38.0,33.0,15000.0,MONOAMBIENTE CON AMENITIES EN BARRIO NORTE,Departamento,Alquiler
XWz14/eUEHax9DSj+Yhtsg==,2019-03-13,-34.62919617,-58.45893478,Flores,60.0,60.0,20000.0,R Falcon  2100 - $ 20.000 - Local Alquiler,Local comercial,Alquiler
hdA75bXPwQpO4fGgKyoY5A==,2019-04-13,-34.5609042,-58.4436884,Belgrano,100.0,94.0,30000.0,DEPTO 3 AMB EN DUPLEX CON COCHERA EN ALQUILER EN BELGRANO,Departamento,Alquiler
L1/FxRUuw7OfdZvkNQ9fJQ==,2019-06-10,-34.5775233,-58.4253167,Palermo,60.0,55.0,38000.0,Torre Beruti ESPECTACULAR DEPARTAMENTO en Alquiler 2 AMB c/COCHERA - PALERMO NUEVO - Torre Beruti 4646 PREMIUM AMENITIES,Departamento,Alquiler
WbKBYTvDbWXgkLyLyC0Zww==,2019-05-14,-34.6371994,-58.4391556,Caballito,42.0,39.0,15000.0,Excelente 2 amb. a estrenar Repetto 1000,Departamento,Alquiler
GT2jnQejtH8w2zLGloL9tQ==,2019-01-17,-34.596779,-58.414089,Barrio Norte,50.0,42.0,15000.0,Alquiler Departamento en Barrio Norte Capital Federal CABRERA 3380,Departamento,Alquiler
UYAdHGaTAL9sPYp5HygfNg==,2019-01-06,-34.5517925,-58.4662249,Nuñez,42.0,42.0,18000.0,EXCELENTE DEPARTAMENTO 2 AMBIENTES C/ BALCÓN Y COCHERA,Departamento,Alquiler
Fde8zJwaoG1umZmE5Z76eg==,2019-02-03,-34.590235,-58.424022,Palermo,30.0,30.0,19000.0,COST RICA 4400 LOCAL EN ALQUILER,Local comercial,Alquiler
SxD3e3sK1tOj4+Swulpz9g==,2019-06-05,-34.5804614,-58.425498,Palermo,28.0,26.0,15000.0,Departamento - Palermo,Departamento,Alquiler
UwJVK41+VEIQIe7jH1MpSg==,2019-06-04,-34.5780655,-58.4265317,Belgrano,68.0,53.0,20000.0,Departamento - Palermo,Departamento,Alquiler
kF1csBqMw87Q7OGIFwZkxw==,2019-01-18,-34.5792782,-58.4305871,Palermo,60.0,60.0,32000.0,"Alquiler temporario, moderno Dpto2 amb, con dos baños- Palermo Hollywood",Departamento,Alquiler
zO3RZKwQ1yI5ZhJOs4YIjA==,2019-04-16,-34.614426,-58.435616,Caballito,66.0,60.0,18000.0,Alquiler Departamento en Caballito Capital Federal ELEODORO LOBOS 264,Departamento,Alquiler
mNe3buACSIu36/wPxZPKyg==,2019-04-28,-34.6000348,-58.4154968,Almagro,36.0,36.0,14000.0,Local de 1 ambiente en Alquiler en Almagro,Local comercial,Alquiler
Ej5Sz57RmnDBk/7YPDz2Yw==,2019-06-01,-34.60514,-58.424771,Almagro,28.0,28.0,11000.0,"ALQUILER 2 AMB EN ALMAGRO, VISTA ABIERTA",Departamento,Alquiler
HUf/055h4vUnWHe91XyPbg==,2019-06-04,-34.588769963,-58.4097409503,Barrio Norte,104.0,92.0,35000.0,ALQUILER DTO 108 MTS BALCON A LA CALLE IMPECABLE ESTADO amoblado,Departamento,Alquiler
54NI2zZKextKSJthlO87qQ==,2019-01-26,-34.6314621,-58.4818559,Flores,105.0,70.0,28000.0,Departamentos tipo casa - 3 amb a estrenar!!! Inmejorable ubicación,Departamento,Alquiler
eahQ7tpcELNgXX/RIlqUYA==,2019-03-01,-34.5999928,-58.4330305,Palermo,32.0,30.0,13000.0,Alquiler: Excelente monoambiente apto profesional • Sum • Parrilla.,Departamento,Alquiler
EjFQlqR1Bj5vJ2CywwRp0g==,2019-04-29,-34.6123575,-58.4450093,Caballito,56.0,51.0,29000.0,Departamento - Caballito,Departamento,Alquiler
ECpt9RvtbLHxXaLnSaCDsA==,2019-02-27,,,Barrio Norte,33.0,33.0,16000.0,Av. Callao y  Juncal,Departamento,Alquiler
50N3Wusr6CRIkNOjXdRYtQ==,2019-04-26,-34.617727,-58.449153,Caballito,32.0,30.0,11500.0,LUMINOSO Y MODERNO MONOAMBIENTE CON BALCON - APTO,Departamento,Alquiler
1Qjqu1ijT/pReWI0ByoW/Q==,2019-06-07,-34.55526,-58.449758,Belgrano,96.0,72.0,30000.0,"Departamento- Alquiler -Belgrano, Capital Federal",Departamento,Alquiler
2R4QkLy/SEcq93/c4MFAmw==,2019-04-11,-34.592888,-58.3955136,Recoleta,40.0,40.0,17000.0,Departamento - Recoleta,Departamento,Alquiler
71k3QTG9kQH/WBbqrV8o2Q==,2019-03-02,-34.5962667,-58.4116766,Barrio Norte,40.0,40.0,18000.0,Amplio dos ambientes temporal Barrio Norte,Departamento,Alquiler
rzlWkWFkGxqf4ZRz/quNkQ==,2019-02-05,-34.6209278,-58.4458736,Caballito,35.0,32.0,11000.0,Departamento - Caballito,Departamento,Alquiler
xu/TbyyIRHffZcAUvPB6Fw==,2019-01-11,-34.591476,-58.420673,Palermo,86.0,79.0,18500.0,Alquiler Departamento en Palermo Capital Federal Acuña de Figueroa  1700,Departamento,Alquiler
C3KbXY3DYq/g9EwUkIQhEg==,2019-03-13,-34.6274341,-58.4433231,Caballito,34.0,34.0,13000.0,Departamento  en alquiler 2 ambientes - Caballito,Departamento,Alquiler
i13nlaJPj1kKu4lAXLiOoQ==,2019-06-10,,,Belgrano,75.0,67.0,25000.0,Hermoso semipiso en una de las cuadras mas lindas de Belgrano,Departamento,Alquiler
y3h1OMAsflU8fyZspY6gcQ==,2019-02-21,-34.569123,-58.486715,Villa Urquiza,44.0,44.0,12000.0,Alquiler 2 Amb Villa Urquiza Muy luminoso!!,Departamento,Alquiler
1HHMidumVjYw84jGnImc5w==,2019-05-23,-34.6074352,-58.418773,Almagro,71.0,62.0,19000.0,DEPARTAMENTO EN ALQUILER,Departamento,Alquiler
ycvUZo1rBM4UUyXLjJ/J4w==,2019-05-10,-34.57659912,-58.42175674,Palermo,115.0,108.0,45000.0,Fray Sta Maria De Oro  2700 5°  - $ 45.000 - Departamento Alquiler,Departamento,Alquiler
83rqU58ndRb9a8vP5amkYw==,2019-05-03,-34.563613,-58.464236,Belgrano,42.0,40.0,16000.0,"IMPECABLE 2 AMBIENTES BELGRANIO ""R"" ALQUILER",Departamento,Alquiler
qrK6ujiH75b2hbgi/Lj2uA==,2019-03-20,-34.5911611,-58.3886979,Recoleta,159.0,108.0,40000.0,Guido y Rodriguez Peña,Departamento,Alquiler
7+fT33a7SUlAZruIPVcL2A==,2019-04-06,-34.5866508,-58.3861881,Recoleta,40.0,40.0,20000.0,2 AMBIENTES AMOBLADO Y EQUIPADO LIBERTADOR Y CALLAO,Departamento,Alquiler
a4PTJb7VtNidtrbdlKqMIA==,2019-02-19,,,Palermo,160.0,130.0,50000.0,DEPARTAMENTO EN ALQUILER,Departamento,Alquiler
4d8uMnG3Xj5atrNi4uoXjw==,2019-03-14,-34.5455393,-58.4600331,Nuñez,56.0,42.0,15000.0,Departamento - Nuñez,Departamento,Alquiler
WEmimLxLOhK+zmP+KQt3Sw==,2019-01-13,-34.5861401,-58.4153961,Palermo,50.0,50.0,16000.0,Alquiler 3 ambientes en Palermo,Departamento,Alquiler
6SPaQg5JVyRhyLxBoCP+gg==,2019-01-16,-34.5751323,-58.4202067,Palermo,113.0,107.0,45000.0,ALQUILER 4 AMBIENTES CON COCHERA EN PALERMO NUEVO,Departamento,Alquiler
m3MPuHA8bOZUNDjr4Isx2w==,2019-03-27,,,Barrio Norte,58.0,48.0,22500.0,"DEPARTAMENTO APTO PROF RECICLADO CON VIGILANCIA 24 HS, PILETA",Oficina,Alquiler
STu2n0Ko5CsmDaZVbbKjEg==,2019-03-28,-34.5999928,-58.4330305,Caballito,32.0,30.0,13000.0,Alquiler: Excelente monoambiente apto profesional • Sum • Parrilla • Laundry.,Departamento,Alquiler
9TuGdiLXTw7/OixHNWpF0A==,2019-05-16,-34.5392103249,-58.4724847209,Nuñez,75.0,52.0,28000.0,Cuba 4700 - tríplex 2 Ambientes + Parrilla + Terraza  - Núñez,Casa,Alquiler
Fe/x5FUJayMOktiP/ZUomA==,2019-02-08,,,Recoleta,155.0,130.0,30000.0,Ayacucho y Av. Alvear. SOLO consultorio. Muy luminoso con Patio,Oficina,Alquiler
frhsNVIF6ZG7t8WmDco5JQ==,2019-03-28,-34.5799927,-58.4081181,Barrio Norte,76.0,70.0,52500.0,ALQUILO amoblado PALACIO BELLINI  full AMENITIES - coch,Departamento,Alquiler
WRxT8ETVgjZFA8tQicn8NQ==,2019-04-27,-34.6295731,-58.4478063,Caballito,60.0,56.0,20000.0,Departamento de 3 Ambientes con Cochera en Planta Baja descubierta - Caballito,Departamento,Alquiler
u8OFgxQ1M2XdhO0Qxxo43g==,2019-01-01,-34.6068306,-58.4349556,Caballito,60.0,55.0,14000.0,A. Jaureche  100 - $ 14.000 - Departamento Alquiler,Departamento,Alquiler
dbv8VyAf8eFbXjwSIic9wA==,2019-06-22,-34.598358,-58.434811,Villa Crespo,45.0,40.0,13000.0,Alquiler Departamento en Villa Crespo Capital Federal ARAOZ  600,Departamento,Alquiler
3+yG4mpMeN/zzRAtLli2jA==,2019-01-16,-34.610725,-58.430008,Almagro,40.0,40.0,11000.0,Alquiler Departamento en Almagro Capital Federal Bartolome Mitre 4483,Departamento,Alquiler
qraYmXe+B9UX5iIhorO2bw==,2019-02-19,-34.5877837,-58.4343401,Palermo,53.0,53.0,30000.0,Oficina co-working en Palermo Soho.,Local comercial,Alquiler
A2MiQ563o3SHEQCSEoS1ow==,2019-01-31,-34.6314621,-58.4818559,Flores,70.0,50.0,24000.0,Departamento tipo casa - 2 amb a estrenar!!! Inmejorable ubicación,Departamento,Alquiler
xeDrMUWkOg2wVj8+FCYVBQ==,2019-05-06,-34.600217,-58.430656,Villa Crespo,28.0,28.0,12000.0,Alquiler 2 amb. Villa Crespo APTO PROFESIONAL,Departamento,Alquiler
+AL0Z1BwSVizLziQAFN7XQ==,2019-02-06,-34.5957447,-58.4097622,Barrio Norte,53.0,51.0,21000.0,Aguero 1200 :: En Alquiler Hermoso departamento 3 ambientes con cochera Fija y baulera,Departamento,Alquiler
EWiVijO26AZ7zekpqa/BVw==,2019-06-26,-34.6231482,-58.4356828,Caballito,53.0,48.0,13000.0,Departamento - Caballito,Departamento,Alquiler
XWd+j9MsnewhSWXexSWaKw==,2019-04-25,-34.60526,-58.42441,Almagro,40.0,40.0,20000.0,Local de 1 ambiente en Alquiler en Almagro,Local comercial,Alquiler
/WAyIiyHZ9/QJHdBSf9rCw==,2019-05-21,-34.6218645,-58.4291692,Caballito,67.0,58.0,18000.0,DEPARTAMENTO EN ALQUILER,Departamento,Alquiler
KNCxWaZPjtay1FpToDxOGA==,2019-06-06,,,Palermo,28.0,28.0,15000.0,Av. Córdoba  3200 - $ 15.000 - Local Alquiler,Local comercial,Alquiler
o889JqsNTcOVzBgr8gIjHA==,2019-01-28,-34.611328,-58.466145,Caballito,39.0,39.0,11000.0,Alquiler Departamento de 2 ambientes en Caballito,Departamento,Alquiler
Thy40RFNoS50EJduZ7Qbqg==,2019-06-22,-34.5923964,-58.393061,Recoleta,110.0,110.0,50000.0,Pacheco De Melo 1823,Local comercial,Alquiler
QQC3eSi/LQXq414EuRbPng==,2019-02-07,-34.595477,-58.403852,Barrio Norte,73.0,60.0,20500.0,Alquiler 3 ambientes con PATIO en Barrio Norte!!,Departamento,Alquiler
GtKoZduuP2CWIbzxXvLRww==,2019-04-13,-34.5866488201,-58.4134139387,Barrio Norte,48.0,48.0,15800.0,Dos ambientes en Barrio Norte,Departamento,Alquiler
E3B3nO8nayQNP5aU9uAdew==,2019-02-19,-34.6219105,-58.4443672,Caballito,87.0,80.0,19000.0,Departamento - Caballito,Departamento,Alquiler
e+Tj//9NA3bxhwar3moUxQ==,2019-05-21,-34.5902266,-58.4085008,Barrio Norte,38.0,38.0,15000.0,AV SANTA FE 3069 2 AMB APTO PROFESIONAL SUBTE,Departamento,Alquiler
zIEBa/QNnA8vtMUvdmvd8g==,2019-05-31,-34.6271755602,-58.447294254,Caballito,43.0,40.0,16500.0,Alquiler excelente 2 ambientes Caballito,Departamento,Alquiler
I03QGcn4lYtW/XiPtGFZ4Q==,2019-02-15,-34.6030332,-58.3953523,Barrio Norte,30.0,30.0,13500.0,Departamento - Barrio Norte,Departamento,Alquiler
4ABlkj+FTchj+Gu0v40ZcQ==,2019-04-28,-34.5667756547,-58.4594296034,Belgrano,85.0,80.0,25000.0,DEPARTAMENTO EN ALQUILER,Departamento,Alquiler
CBijpqcbHMUZPKqhjCI2hg==,2019-02-27,-34.5733817,-58.47354,Villa Urquiza,37.0,32.0,12500.0,ALQUILER EXCELENTE MONOAMBIENTE MUY LUMINOSO A ESTRENAR FULL AMENITIES EN VILLA URQUIZA,Departamento,Alquiler
kTPB70VSpgPZgUdcvf2kNw==,2019-03-23,-34.604714332,-58.4154589372,Almagro,40.0,40.0,13000.0,Departamento de 2 ambientes en Alquiler en Almagro,Departamento,Alquiler
8JNzLVAPx7b7RlpaXpeKTg==,2019-03-23,-34.6022493,-58.3985346,Barrio Norte,47.0,44.0,12000.0,"Excelente dos ambientes, muy buena ubicación , luz y vista verde.PAQUETE $ 16.000",Departamento,Alquiler
Kf4+ezhLKtN2d5KycpGCYg==,2019-03-12,-34.5586031,-58.4446026,Belgrano,30.0,30.0,9000.0,Departamento - Belgrano,Departamento,Alquiler
cc2jNIVrDkZB22sAJ5dAkQ==,2019-06-26,-34.6146925,-58.4366613,Caballito,45.0,37.0,11500.0,DEPARTAMENTO 1 AMB. CON PATIO. APTO PROFESIONAL,Departamento,Alquiler
uaHSkX9BLfsKWhIKHlyCcQ==,2019-01-21,-34.5901582696,-58.3828122468,Recoleta,98.0,87.0,25000.0,"Departamento 98m² 3 ambientes en CERRITO 1500, Capital Federal, Recoleta, por $ 25.000",Departamento,Alquiler
6V1t8urLNvKpRrmUTAstQg==,2019-06-10,-34.6114447,-58.4209936,Almagro,45.0,40.0,16000.0,ALQUILER ALMAGRO 2amb. amoblado,Departamento,Alquiler
TpG24ow2a86U0Dxg8bis4A==,2019-04-19,-34.5598325,-58.4528394,Belgrano,65.0,65.0,35000.0,$ 35.000 - Oficina - Juramento 2000,Oficina,Alquiler
vN0Lu+X3hEH5ZNfW+epbLQ==,2019-02-09,-34.5894167,-58.4309169,Palermo,45.0,45.0,28000.0,GORRITI 4900,Local comercial,Alquiler
bTswvNFpc0IStBJg6HX1CA==,2019-03-12,-34.5786841,-58.4678159,Villa Urquiza,40.0,40.0,10600.0,DEPARTAMENTO EN ALQUILER,Departamento,Alquiler
L5B5HrNTQa3iW2Xbl0wDeA==,2019-02-24,,,Recoleta,100.0,64.0,35000.0,EXCELENTE DEPARTAMENTO DE DOS AMBIENTES EN ALQUILER TOTALMENTE EQUIPADO-  ZONA RECOLETA,Departamento,Alquiler
bQ+EU9uynMbWFGow/SMbmg==,2019-03-18,-34.5965884,-58.4431011,Villa Crespo,39.0,28.0,9500.0,Departamento de 1 ambiente en Alquiler en Villa crespo,Departamento,Alquiler
B6VBJmizA94nTev97lq+7g==,2019-03-29,-34.6351211,-58.4513154,Flores,39.0,39.0,11000.0,"Pumacahua y Rivadavia - 2 amb - Apto consultorio, oficina, estudio a mts de Av. Rivadavia",Departamento,Alquiler
5zH4NbXdqzybbko85KlJKg==,2019-01-11,-34.5664039,-58.4545219,Belgrano,38.0,38.0,11500.0,CIUDAD DE LA PAZ 1700 - BELGRANO - 2 AMB. AL FRENTE C/BALCÓN!,Departamento,Alquiler
whPBUs765QthROyEDj6ysg==,2019-01-13,-34.6020458,-58.4439422,Villa Crespo,149.0,149.0,25000.0,Depto.tipo casa de 5 ambientes en Alquiler en Villa crespo,PH,Alquiler
Yr9kf2JIjaVE11nkH/zgxw==,2019-04-17,-34.5430681,-58.4618443,Nuñez,57.0,51.0,25000.0,Departamento - Nuñez,Departamento,Alquiler
+WR25T9Gh52j8WjNQNPX2A==,2019-01-17,-34.60986,-58.41743,Almagro,58.0,55.0,16000.0,Departamento de 3 ambientes en Alquiler en Almagro,Departamento,Alquiler
3HJ9Pin3ELYJe6KcN3ovtw==,2019-05-31,-34.564,-58.461,Belgrano,68.0,64.0,20000.0,Departamento - Belgrano,Departamento,Alquiler
jkbWuvvuLhP/gihk5bqTPQ==,2019-04-12,-34.5812730961,-58.412434082,Barrio Norte,90.0,90.0,42000.0,Alquiler 3 Ambientes Amoblado Con Cochera,Departamento,Alquiler
bL3QbcBBTJbGfe6dnIuDtQ==,2019-06-14,-34.5558002,-58.4604959,Belgrano,30.0,30.0,17500.0,2 amb amoblado sin expensas,Departamento,Alquiler
KYgghriczX81DVMkE/Q9Ig==,2019-03-11,-34.5902364,-58.4052456,Barrio Norte,62.0,54.0,35000.0,Oficina - Barrio Norte,Oficina,Alquiler
lzkfqUM21LVh3V+cCWI7OA==,2019-06-13,-34.5773551796,-58.4133773222,Palermo,130.0,120.0,45000.0,Departamento semipiso de 3 ambientes con cochera alquiler Palermo,Departamento,Alquiler
VZA6kfsjmFwoZKA3T/HnMA==,2019-06-15,-34.6189549,-58.4383128,Caballito,80.0,72.0,27000.0,DPTO 4 AMB CFRTE BCON CORRIDO FRENTE SHOPPING OR NORTE,Departamento,Alquiler
4x+8DP1CVEJpLbksAoa75g==,2019-03-30,-34.5865415,-58.4368506,Palermo,60.0,60.0,22000.0,Oficina en Alquiler,Oficina,Alquiler
KtR+SVlClCS1LBEZTC0xeQ==,2019-01-30,-34.5954803,-58.4202352,Palermo,56.0,52.0,14000.0,Alquiler 2 ambientes en Palermo,Departamento,Alquiler
TA53n4anRTGgBQQP8xJtJw==,2019-03-21,-34.5927663,-58.4148821,Palermo,84.0,70.0,28000.0,Alquiler: 3 ambientes con cochera · Baño y toilette · Excelente zona!,Departamento,Alquiler
PQInbSR89WZGcwRKbQ3VpA==,2019-04-26,-34.6341722,-58.4602993,Flores,64.0,55.0,25000.0,DEPARTAMENTO EN ALQUILER,Departamento,Alquiler
Z4SKIqgn869ur+CN6TaM5Q==,2019-05-09,-34.5947627,-58.3901869,Recoleta,60.0,60.0,26000.0,DEPARTAMENTO EN ALQUILER,Departamento,Alquiler
IOgAdpw8nd9hyMbffNBlyA==,2019-03-14,-34.620691,-58.444972,Caballito,78.0,67.0,18000.0,ALQUILER DEPARTAMENTO 3 AMB AMPLIOS EN CABALLITO,Departamento,Alquiler
OupuBKL9JX1sYYarAHOZkw==,2019-03-01,-34.5640988297,-58.4547122942,Belgrano,65.0,65.0,52000.0,Libertador 5700 y Sucre. 65m2 Al ContraFrente. Oportunidad,Oficina,Alquiler
A9ivXyr5ITVNM+k4D2qWwA==,2019-02-05,-34.5969657,-58.385791,Barrio Norte,90.0,90.0,35000.0,BARRIO NORTE 3 AMBIENTES 1 SUITTE VESTIDOR 2 BAÑOS PALIER PRIVADO COCHERA FIJA,Departamento,Alquiler
Ar3tZx/6ExeCHxeHladd8g==,2019-02-08,-34.559837,-58.460071,Belgrano,86.0,72.0,23000.0,Espectacular Departamento  de 3 Ambientes,Departamento,Alquiler
MmPRqEDO6BJo0pRa5Zd25w==,2019-06-10,-34.6133602,-58.4411491,Caballito,73.0,65.0,22000.0,Alquiler 3 ambientes al frente,Departamento,Alquiler
jmUmKvRAcjDpY3VpoDQUEg==,2019-05-04,-34.554011,-58.459911,Belgrano,57.0,54.0,16000.0,ALQUILER OFICINA A ESTRENAR CONGRESO Y CUBA 1 AMB,Oficina,Alquiler
ZQ+gxGVRdxkw5cHWxZMIjw==,2019-03-28,-34.57444,-58.48257065,Villa Urquiza,45.0,41.0,14000.0,Av F De Olazabal  4800 8°  - $ 14.000 - Departamento Alquiler,Departamento,Alquiler
H71Pxz/N1f4tNUCC2aps6A==,2019-01-24,-34.5947443,-58.428847,Recoleta,50.0,50.0,20000.0,DEPARTAMENTO ALQUILER  PALERMO FRENTE 2 AMB,Departamento,Alquiler
g8JuCgG5wxRLuFq7Cm7Cfg==,2019-03-28,-34.5971816,-58.4342012,Palermo,47.0,47.0,30000.0,Local de 1 ambiente en Alquiler en Palermo,Local comercial,Alquiler
P40konWxdWIGap8/IXqxaw==,2019-01-16,-34.6027265,-58.4147502,Almagro,42.0,38.0,10000.0,"1 AMBIENTE DIVISIBLE, AIRE ACONDICIONADO",Departamento,Alquiler
TsQpRH1xsSIuZsh8028IRQ==,2019-01-11,-34.5827493,-58.4488769,Palermo,60.0,60.0,20000.0,Excelente Oficina con cochera en Edificio La Musa! - Palermo Hollywood,Oficina,Alquiler
8A1483HPIJFF6738cWlYTQ==,2019-06-10,-34.5948105183,-58.4237724344,Palermo,95.0,95.0,45000.0,Alquiler de Local Palermo,Local comercial,Alquiler
47Xq3YVPdtQ2z5TC1DBJWg==,2019-05-31,-34.5906543261,-58.4240301109,Palermo,31.0,28.0,14000.0,Departamento de 1 ambiente en Alquiler en Palermo,Departamento,Alquiler
lBIhjwrqeIKn4o4BXl4IqA==,2019-03-22,-34.5793865,-58.4245523,Palermo,39.0,35.0,13500.0,"Recien pintado, pisos pulidos y plasticados",Departamento,Alquiler
yCiakWxDHVYN2qVUTtKgCQ==,2019-03-07,-34.574327,-58.421817,Palermo,45.0,40.0,18000.0,DEPARTAMENTO EN ALQUILER DE 2 AMBIENTES EN SUITE EN PALERMO CON AMENITIES,Departamento,Alquiler
2S9tcsS57HQsy5q1a3LvZw==,2019-05-18,-34.6189884,-58.4313615,Caballito,80.0,70.0,17000.0,Excelente departamento de 3 amb con balcon!,Departamento,Alquiler
LkazmU+NO5cSS5Rb2O1Fyg==,2019-03-13,-34.6430092,-58.4511613,Flores,65.0,65.0,15000.0,4 AMB TIPO CASA SIN EXPENSAS,PH,Alquiler
EvaSYFp5hvclxeYJFA3q/g==,2019-05-31,-34.6330949,-58.460725,Flores,39.0,36.0,11000.0,"MONOAMBIENTE AL FRENTE, COCINA APARTE, BALCON Y COCHERA FIJA CUBIERTA.",Departamento,Alquiler
EoYSfSytOJNH+oHGPis7vw==,2019-01-25,-34.594304,-58.421976,Palermo,45.0,45.0,17000.0,Alquil 2amb.Categoria.PalermoSoho.Torre Pont Bleau,Departamento,Alquiler
W7KlORWMfPtE+QLMbG1ohw==,2019-05-31,-34.5949328643,-58.4421010174,Villa Crespo,48.0,45.0,17000.0,Alquiler Dpto 2 ambientes impecable luminoso - Se acepta Seg. de Caución,Departamento,Alquiler
XmUVkiyo56JM/dgHK+sjhA==,2019-02-25,-34.6026516,-58.4244071,Almagro,36.0,32.0,10000.0,"Impecable monoambiente frente de categoria, con balcón , en Almagro. 36 metros",Departamento,Alquiler
ruvFY8M2kyYQ8Dk2Lzdo7Q==,2019-03-24,-34.579417,-58.411235,Palermo,39.0,39.0,15000.0,"Depto vivienda/apto profesional, inmejorable zona!",Departamento,Alquiler
zdpSozv+eQ4vsdAlEuKTbw==,2019-01-10,-34.5790746,-58.4333179,Palermo,98.0,78.0,27000.0,OFICINA EN ALQUILER,Oficina,Alquiler
rsWCKdbfHnFX8m1l9V5CQQ==,2019-02-27,-34.5891872,-58.4194461,Palermo,45.0,40.0,15000.0,"Guatemala y J.Alvarez-2 amb c/balcón al cfte, 45 m2- Alquiler departamento Palermo",Departamento,Alquiler
emG/PqUeuiYyApNE9AUHhw==,2019-06-03,-34.6027972,-58.4586217,Villa Crespo,110.0,60.0,18000.0,Espinosa al 1900 PH DE 3 AMB   ESCR EN ALQUILER EN VILLA CRESPO CABALLITO,PH,Alquiler
r4U1JpQSPm2GsUFkvpPjZw==,2019-01-27,-34.587307,-58.426632,Palermo,58.0,58.0,22000.0,"DOS AMBIENTES CON BAÑO, TOILETTE, COCHERA Y AMENIT",Departamento,Alquiler
dTHb0oOAWM5EJHPr/X1ogA==,2019-04-12,-34.5798479,-58.4337352,Palermo,28.0,28.0,21000.0,Departamento - Palermo Hollywood,Departamento,Alquiler
JagpjujY83Lq7+OOkUaC1A==,2019-05-10,-34.5909585,-58.395094,Recoleta,57.0,57.0,34000.0,Junin 1500 - Excelente departamento dos ambientes amoblado y totalmente equipado!,Departamento,Alquiler
/fIMmVAokKZ5vZtiqDO1DQ==,2019-04-16,-34.55230713,-58.45961761,Nuñez,49.0,42.0,20000.0,Quesada  2000 2°  - $ 20.000 - Departamento Alquiler,Departamento,Alquiler
/SZhU7kBE820scu+PkuAKA==,2019-05-20,-34.570873,-58.481036,Villa Urquiza,54.0,40.0,14000.0,Villa Urquiza dpto 2amb con balc/terraza m/luminos,Departamento,Alquiler
16NcIpealuMLH7BMFmeKpA==,2019-05-10,-34.5930751,-58.3968554,Recoleta,121.0,113.0,38000.0,Alquiler 4 ambientes en Recoleta,Departamento,Alquiler
5q+p5ty6p2AF1ywr3ux7pw==,2019-05-16,-34.5547919,-58.4496834,Belgrano,50.0,42.0,32000.0,OFICINA EN ALQUILER,Oficina,Alquiler
k8lv0VfL2hkX/1WaW4G1Rw==,2019-03-19,-34.5972545803,-58.4157743265,Palermo,49.0,46.0,16500.0,"Depto. 3 AMB Mario Bravo 1129 Muy Luminoso, Impecable",Departamento,Alquiler
owrZuPMpnpMoo2+CsYfzXw==,2019-01-25,-34.5959275,-58.3961739,Barrio Norte,50.0,50.0,16000.0,departamento de 2 ambientes amplios con balcon a la calle,Departamento,Alquiler
19+Cbi0mvlFjDQiwBokxBA==,2019-06-21,-34.537059,-58.467319,Nuñez,67.0,65.0,21000.0,Alquiler Departamento 3 Ambientes en Nuñez,Departamento,Alquiler
EegjiBvEJrtSPwgnhcNZ9g==,2019-06-26,-34.556862,-58.461775,Belgrano,41.0,41.0,15500.0,OFICINA-Alquiler-2 ambientes Cabildo y Congreso,Oficina,Alquiler
IwLDOd1QGwctFAyJOVS+5g==,2019-01-04,-34.5517925,-58.4662249,Nuñez,42.0,42.0,15000.0,EXCELENTE DEPARTAMENTO 2 AMBIENTES C/ BALCÓN,Departamento,Alquiler
+vsWSLXfbtoF0TanpFESbQ==,2019-04-04,-34.596851,-58.412933,Palermo,50.0,45.0,15500.0,Alquiler Departamento en Palermo Capital Federal Cabrera 3300,Departamento,Alquiler
ieFPaMTuLLQ5RfEW6JQqBA==,2019-03-01,-34.5891058,-58.4092546,Barrio Norte,70.0,70.0,17000.0,Excelente departamento de 3 ambientes al Frente.,Departamento,Alquiler
dbh0ewh0bTln4C8D6mfYTg==,2019-06-10,-34.6289511,-58.4393275,Caballito,45.0,40.0,14000.0,Departamento 2 ambientes en alquiler. Caballito.,Departamento,Alquiler
WnuBLTrQoQVy0+eZyKo/1g==,2019-03-19,-34.5939501,-58.3799281,Recoleta,89.0,80.0,20000.0,Departamento 3 ambientes en alquiler  - Recoleta,Departamento,Alquiler
a4DpQWQ3UqTtPeDjzvrY4w==,2019-02-05,-34.5859605,-58.4008653,Recoleta,52.0,46.0,16000.0,Departamento - Recoleta,Departamento,Alquiler
vnTkRd2simwF4vxHfG0dCw==,2019-06-12,-34.5759628,-58.4025654,Palermo,80.0,65.0,55000.0,En el corazón de Palermo Chico !!! Loft Super Canchero !!!,Departamento,Alquiler
4bfZy7JeWcXjGPRZSWymEw==,2019-06-05,-34.5774665185,-58.4325603466,Palermo,52.0,48.0,20000.0,Ángel J Carranza 2300 - Dúplex 2 ambientes - Palermo,Departamento,Alquiler
jbe4v19T/ZEYUpYgwrB53w==,2019-03-20,-34.5603658,-58.4580517,Belgrano,90.0,85.0,15000.0,Departamento alquiler,Departamento,Alquiler
66B/NRfhjukccVhcpLq7jQ==,2019-02-18,-34.6218434,-58.4408978,Caballito,42.0,42.0,17000.0,"Caballito, Centenera del Barco 200",Departamento,Alquiler
8StHLZzV+dJcHTeBmTy/Cw==,2019-02-09,-34.5957769,-58.4427963,Villa Crespo,57.0,54.0,15000.0,Departamento de 3 ambientes en alquiler en Villa Crespo,Departamento,Alquiler
cpEk1BcBe1HRFvW+amxNZg==,2019-06-25,-34.5983534,-58.428192,Villa Crespo,36.0,33.0,12000.0,DEPARTAMENTO EN ALQUILER,Departamento,Alquiler
MRt8svRcSvc7RB8+ScAFPQ==,2019-03-06,-34.5952196,-58.4362119,Villa Crespo,135.0,85.0,30000.0,PH - Villa Crespo,PH,Alquiler
H1dZf3JSkZVc+20udY9PCg==,2019-06-13,-34.5753776959,-58.4398226996,Palermo,75.0,65.0,32000.0,Increible Duplex de 2 amb todo Luz . Estilo New York!,Departamento,Alquiler
D4gXFkq6ZHFi9Z0ACuY9Ag==,2019-05-10,-34.556966,-58.45834,Belgrano,73.0,73.0,35000.0,Oficina 3 ambientes en Belgrano sin expensas,Oficina,Alquiler
zxhq/Ku1as62CYGkzNgQvQ==,2019-01-25,-34.6085971355,-58.4265295228,Almagro,33.0,30.0,11000.0,Excelente dos ambientes en Almagro,Departamento,Alquiler
6bTLeShXpLEjLoKZG7vQlA==,2019-04-04,-34.6114149,-58.4407177,Caballito,70.0,70.0,17000.0,DEPARTAMENTO EN ALQUILER,Departamento,Alquiler
FeMaTjIGdV86fHfPkLlvPQ==,2019-03-01,-34.6250754,-58.4287421,Caballito,70.0,63.0,19000.0,3 ambientes Senillosa y Pedro Goyena,Departamento,Alquiler
MSJXVGts9SN2CF5LphUL9A==,2019-01-05,-34.6110583,-58.4201892,Almagro,50.0,46.0,12000.0,Departamento - Almagro,Departamento,Alquiler
FHAiKSlsuRJUYZ0L1acG6g==,2019-04-03,-34.5437334,-58.4679306,Nuñez,34.0,26.0,9500.0,1 amb PB con patio,Departamento,Alquiler
5BCTcHZRdsuQ8sY7Qhdc2w==,2019-04-10,-34.5821247,-58.4131474,Palermo,35.0,35.0,24000.0,Ugarteche 2894 - Local Comercial,Local comercial,Alquiler
8eahGf/07+TpowhlyfHHFQ==,2019-04-20,-34.597704,-58.416667,Palermo,48.0,45.0,13500.0,Alquiler / Amueblado 2 amb / Sup 46 m2 / Palermo,Departamento,Alquiler
N/P17uDc22AxpLyWy2uv9w==,2019-02-14,-34.5983623,-58.4278792,Villa Crespo,35.0,35.0,14500.0,Departamento - Villa Crespo,Departamento,Alquiler
TYwSFYATnXS8DwqmiuriGg==,2019-02-12,-34.5801552,-58.4842204,Villa Urquiza,41.0,38.0,15000.0,Departamento 1 Ambiente Divisible con Balcón,Departamento,Alquiler
2s+AtcWr3vQ47o5PjL+9xg==,2019-03-20,-34.6058514,-58.4538486,Caballito,50.0,44.0,13500.0,Excelente semipiso con balcón a la calle,Departamento,Alquiler
/EhmxE0UvlME4AUnFCetVQ==,2019-04-26,-34.5731348,-58.4798384,Villa Urquiza,43.0,40.0,13500.0,DEPARTAMENTO EN ALQUILER,Departamento,Alquiler
Yob1XeLMBB7SfmfEEWv33Q==,2019-05-10,-34.600109728,-58.4032615743,Barrio Norte,60.0,54.0,16000.0,DEPARTAMENTO EN ALQUILER,Departamento,Alquiler
QIaS80oQgrQSxdNrMf471w==,2019-03-23,-34.6061037,-58.4411934,Villa Crespo,39.0,39.0,14000.0,DEPARTAMENTO EN ALQUILER,Departamento,Alquiler
wM62SCNbwvs3RDK0rB2JPw==,2019-02-27,-34.5875505,-58.4092087,Palermo,130.0,111.0,50000.0,ALQUILER Coronel Diaz al 2100 - p. 17 cochera Vig,Departamento,Alquiler
NcxlQ08l0UccL6gQt+J4MA==,2019-03-12,-34.5974815,-58.4202346,Palermo,42.0,38.0,14000.0,DEPARTAMENTO EN ALQUILER,Departamento,Alquiler
ajlg7cncB96JtqhmWTrLEQ==,2019-06-11,-34.583356,-58.413431,Palermo,113.0,113.0,28000.0,Departamento Alquiler Palermo 3 amb + dependencia,Departamento,Alquiler
xnOL0zoFuJ6/163wc+IHJQ==,2019-03-10,-34.5870649,-58.3880781,Recoleta,96.0,96.0,32000.0,POSADAS 1500,Departamento,Alquiler
/zq0y+LuJ2Od6OI9luGTzA==,2019-02-14,-34.5478953,-58.4702521,Nuñez,48.0,44.0,12000.0,Departamento alquiler 2 ambientes zona Nuñez,Departamento,Alquiler
L0j8PKdCabxDXmegyhvD4Q==,2019-06-01,-34.598432,-58.387909,Recoleta,27.0,27.0,11000.0,Departamento Dos Ambientes Apto Profesional,Departamento,Alquiler
g+29RocQn5NB1rm9JUyxnw==,2019-01-23,-34.555817,-58.460518,Nuñez,65.0,62.0,18500.0,Alquiler Departamento en Nuñez Capital Federal  MANUEL UGARTE  2300,Departamento,Alquiler
JcRSWD9yFYyL+9WXPnPCOw==,2019-05-31,-34.5427503,-58.4601452,Nuñez,44.0,44.0,15000.0,"2 ambientes con Super balcón Aterrazado, Pura Luz! en esquina.",Departamento,Alquiler
Kr+BjdkMPJ0EffJlEP+9wA==,2019-03-16,-34.570088,-58.488718,Villa Urquiza,47.0,44.0,12500.0,LE BRETON TOMAS A. al 5000,Departamento,Alquiler
XRF/NaMSstK2r/Vxrp3aTw==,2019-01-11,-34.5950412,-58.4383856,Villa Crespo,30.0,30.0,30000.0,LOCAL EN ALQUILER,Local comercial,Alquiler
kzZfAjsZFgPW6wjLvb6BuA==,2019-03-13,-34.5831906,-58.4035767,Palermo,90.0,90.0,22000.0,LAS HERAS 2900,Departamento,Alquiler
6Myiv4QEp77rAkwFyfRarA==,2019-05-30,-34.6132906119,-58.4219715028,Almagro,65.0,62.0,19000.0,DEPARTAMENTO EN ALQUILER,Departamento,Alquiler
FP0uQ6qeB0Pswpi312ea1A==,2019-02-06,-34.5952043,-58.4211319,Palermo,30.0,27.0,12000.0,Departamento - Palermo Viejo,Departamento,Alquiler
kkkh4k4ZQi8TILIa7M+tBg==,2019-05-22,,,Palermo,31.0,28.0,18500.0,ALQUILER  MONOAMBIENTE EDIFICIO PREMIUM  Palermo Hollywood,Departamento,Alquiler
zsqX9dwcGe7V3ec3/8TvWw==,2019-05-08,-34.571705,-58.432152,Palermo,65.0,62.0,37900.0,Alquiler Local en Palermo Capital Federal Baez 400,Local comercial,Alquiler
wybZS6rltgnnDY70jvqrpA==,2019-01-29,-34.5612626,-58.4608712,Belgrano,56.0,50.0,14500.0,OLAZABAL 2600.ALQUILER 2 AMBIENTES,Departamento,Alquiler
NxA+bPSALZWzqXLIh9ZxXw==,2019-01-08,-34.554677,-58.4636214,Nuñez,38.0,38.0,9500.0,Departamento - Nuñez,Departamento,Alquiler
jc5INpx/mmYlzNmyYx4lFw==,2019-03-07,-34.5674782,-58.4375419,Palermo,45.0,45.0,23000.0,Departamento - Las Cañitas,Departamento,Alquiler
WKtap4Mw8a5fl/IZnGDjLg==,2019-04-17,-34.6095281846,-58.4152052609,Almagro,46.0,46.0,14000.0,Departamento - Almagro,Departamento,Alquiler
t9w/gbx+jUBufPx/8HMB7Q==,2019-01-11,-34.5964023,-58.4276911,Almagro,40.0,40.0,12000.0,Departamento de 2 ambientes en Alquiler en Almagro,Departamento,Alquiler
5zNcqUctBTlnS7smGqrBig==,2019-01-05,-34.5644774,-58.4562135,Belgrano,38.0,30.0,14500.0,DEPARTAMENTO EN ALQUILER,Departamento,Alquiler
n+9PpjijlAySOyZmVF9lGQ==,2019-04-01,-34.592743,-58.406147,Barrio Norte,159.0,145.0,45000.0,Alquiler Departamento en Barrio Norte Capital Federal AV. SANTA FE 2800,Departamento,Alquiler
XBJTYnD+4kG6vC+r6Lzt4A==,2019-01-09,-34.561872,-58.451538,Belgrano,105.0,105.0,34000.0,DEPARTAMENTO EN ALQUILER,Departamento,Alquiler
Zt1GzCIjNSobygqvEFpE7Q==,2019-02-16,-34.587891,-58.411537,Palermo,55.0,55.0,20500.0,Alquiler Departamento en Palermo Capital Federal Bulnes 2100,Departamento,Alquiler
fMt0PxmkWXKxu+vyUGPcRA==,2019-02-12,-34.5927614,-58.4161349,Palermo,42.0,38.0,12000.0,DEPARTAMENTO EN ALQUILER,Departamento,Alquiler
M7yW697bGh9hnOKB7VdREA==,2019-06-22,-34.6052198968,-58.4248702436,Almagro,28.0,28.0,11500.0,Departamento de 2 ambientes en Alquiler en Almagro,Departamento,Alquiler
QIUmOetPqiF9tiLpcOS7Jw==,2019-02-22,-34.5753612,-58.4365757,Palermo,38.0,35.0,12000.0,"ALQUILER Divino MONOAMBIENTE en Palermo/Carranza con Piscina, Jardin y Sum",Departamento,Alquiler
yFI90XOjjakqz0cUF3rpGg==,2019-06-10,-34.573943,-58.437631,Belgrano,63.0,63.0,18000.0,Alquiler Local en Belgrano Av. Cabildo,Local comercial,Alquiler
1VAbWxmNACeXY+YQJzS+fg==,2019-01-11,-34.5741379,-58.4408866,Belgrano,70.0,63.0,16000.0,DEPARTAMENTO EN ALQUILER,Departamento,Alquiler
N3T3/XsXITFO2xlyfU3YFQ==,2019-03-28,-34.57224655,-58.48670959,Villa Urquiza,75.0,72.0,21000.0,Cullen  5000 - $ 21.000 - Departamento Alquiler,Departamento,Alquiler
yTjF6llBRdyNWa+yETU5xQ==,2019-01-19,-34.5895459,-58.3973636,Recoleta,32.0,32.0,12000.0,2 ambientes Recien Pintado en Ubicacion Estrategica,Departamento,Alquiler
wGiqej0pASY+KmdXBM+7Qg==,2019-02-04,-34.5778955,-58.4847973,Villa Urquiza,72.0,65.0,16500.0,Bauness 2100 - Depto 3 ambientes + balcón - Villa Urquiza,Departamento,Alquiler
15OUD+Q9FaQOHO4FMR2RHw==,2019-02-15,-34.5957447,-58.4097622,Barrio Norte,53.0,51.0,21000.0,Aguero 1200 :: En Alquiler Hermoso departamento 3 ambientes con cochera Fija y baulera,Departamento,Alquiler
O4qPG/rWFw8lN510G6qUBw==,2019-05-31,-34.6123575,-58.4450093,Caballito,56.0,51.0,29000.0,Departamento - Caballito,Departamento,Alquiler
cheE8jDdrLgbmbxke8Epog==,2019-05-03,-34.5979185995,-58.4150876372,Barrio Norte,180.0,151.0,33000.0,Departamento 4 amb   dep en alquiler - Barrio Norte,Departamento,Alquiler
0bmNaJiMmhMHF2rPycr/sA==,2019-01-16,,,Palermo,38.0,37.0,14200.0,"Departamento 2 AMB, Reciclado Apto credito",Departamento,Alquiler
2ECWQnKFBBS5FUnn3e4/Ww==,2019-03-29,-34.5682558,-58.4354282,Palermo,40.0,38.0,15000.0,Departamento de 2 ambientes amoblado en Las Cañitas,Departamento,Alquiler
eXCHQevP+YRwpD1E10ZdDg==,2019-02-19,-34.586863,-58.3957179,Barrio Norte,100.0,96.0,40000.0,Amplio S/piso todo luz y sol c/bcon frances (2 suites) Pueyrredon y Guido,Departamento,Alquiler
1nFA7bEM0jHtzmVeUeeFSA==,2019-03-12,-34.5595153,-58.4455045,Nuñez,65.0,65.0,35000.0,Av del Libertador 5700 - Nuñez - Capital Federal,Oficina,Alquiler
b+6jWd3JsnKmPpCOA9dM+Q==,2019-04-02,-34.5634859,-58.4493258,Belgrano,117.0,109.0,37000.0,"José Hernandez 1900 alquiler semipiso de 3 dormitorios, dependencias, cochera, vig.",Departamento,Alquiler
tOB0ZNHPsBJ3WgHVfbg0ZA==,2019-06-05,-34.5979931056,-58.4202635031,Palermo,34.0,34.0,12000.0,DEPARTAMENTO EN ALQUILER,Departamento,Alquiler
Iq9Wn00HOe9FM5njn5q+yg==,2019-01-16,-34.6118234,-58.4437399,Caballito,78.0,70.0,26000.0,Departamento - Caballito,Departamento,Alquiler
TKdaI6CPdrXFBQFnmC3bfA==,2019-01-12,-34.5446471,-58.4749157,Nuñez,84.0,80.0,48000.0,Dep.  amoblado en Torre  Tres Dormitorios con Cochera- Nuñez,Departamento,Alquiler
